NMEA Data logger version 3.00
$GPRMC,000002,V,,,,,,,100711,1.0,E,N*3D
$GPRMB,V,,,,,,,,,,,,V,N*04
$GPGGA,000002,,,,,0,11,,,M,,M,,*64
$GPGSA,A,1,04,09,12,14,15,17,18,22,25,26,27,,,,*18
$GPGSV,3,1,11,04,08,101,00,09,86,040,00,12,55,250,00,14,21,318,00*7C
$GPGLL,,,,,000002,V,N*66
$GPBOD,,T,,M,,*47
$GPVTG,,T,,M,,N,,K*4E
$PGRME,,M,,M,,M*00
$PGRMZ,,f,1*29
$PGRMM,WGS 84*06
$GPRTE,1,1,c,*37
$GPRMC,000004,V,,,,,,,100711,1.0,E,N*3B
$GPRMB,V,,,,,,,,,,,,V,N*04
$GPGGA,000004,,,,,0,12,,,M,,M,,*61
$GPGSA,A,1,04,09,12,14,15,17,18,22,25,26,27,37,,,*1C
$GPGSV,3,2,12,15,31,183,00,17,33,053,00,18,08,253,00,22,12,288,00*73
$GPGLL,,,,,000004,V,N*60
$GPBOD,,T,,M,,*47
$GPVTG,,T,,M,,N,,K*4E
$PGRME,,M,,M,,M*00
$PGRMZ,,f,1*29
$PGRMM,WGS 84*06
$GPRTE,1,1,c,*37
$GPRMC,000006,V,,,,,,,100711,1.0,E,N*39
$GPRMB,V,,,,,,,,,,,,V,N*04
$GPGGA,000006,,,,,0,12,,,M,,M,,*63
$GPGSA,A,1,04,09,12,14,15,17,18,22,25,26,27,37,,,*1C
$GPGSV,3,3,12,25,18,248,00,26,02,160,00,27,72,107,00,37,65,090,00*73
$GPGLL,,,,,000006,V,N*62
$GPBOD,,T,,M,,*47
$GPVTG,,T,,M,,N,,K*4E
$PGRME,,M,,M,,M*00
$PGRMZ,,f,1*29
$PGRMM,WGS 84*06
$GPRTE,1,1,c,*37
$GPRMC,000008,V,,,,,,,100711,1.0,E,N*37
$GPRMB,V,,,,,,,,,,,,V,N*04
$GPGGA,000008,,,,,0,12,,,M,,M,,*6D
$GPGSA,A,1,04,09,12,14,15,17,18,22,25,26,27,37,,,*1C
$GPGSV,3,1,12,04,08,101,00,09,86,040,00,12,55,250,00,14,21,318,00*7F
$GPGLL,,,,,000008,V,N*6C
$GPBOD,,T,,M,,*47
$GPVTG,,T,,M,,N,,K*4E
$PGRME,,M,,M,,M*00
$PGRMZ,,f,1*29
$PGRMM,WGS 84*06
$GPRTE,1,1,c,*37
$GPRMC,000010,V,,,,,,,100711,1.0,E,N*3E
$GPRMB,V,,,,,,,,,,,,V,N*04
$GPGGA,000010,,,,,0,12,,,M,,M,,*64
$GPGSA,A,1,04,09,12,14,15,17,18,22,25,26,27,37,,,*1C
$GPGSV,3,2,12,15,31,183,00,17,33,053,00,18,08,253,00,22,12,288,00*73
$GPGLL,,,,,000010,V,N*65
$GPBOD,,T,,M,,*47
$GPVTG,,T,,M,,N,,K*4E
$PGRME,,M,,M,,M*00
$PGRMZ,,f,1*29
$PGRMM,WGS 84*06
$GPRTE,1,1,c,*37
$GPRMC,000012,V,,,,,,,100711,1.0,E,N*3C
$GPRMB,V,,,,,,,,,,,,V,N*04
$GPGGA,000012,,,,,0,12,,,M,,M,,*66
$GPGSA,A,1,04,09,12,14,15,17,18,22,25,26,27,37,,,*1C
$GPGSV,3,3,12,25,18,248,00,26,02,160,00,27,72,107,00,37,65,090,00*73
$GPGLL,,,,,000012,V,N*67
$GPBOD,,T,,M,,*47
$GPVTG,,T,,M,,N,,K*4E
$PGRME,,M,,M,,M*00
$PGRMZ,,f,1*29
$PGRMM,WGS 84*06
$GPRTE,1,1,c,*37
$GPRMC,000014,V,,,,,,,100711,1.0,E,N*3A
$GPRMB,V,,,,,,,,,,,,V,N*04
$GPGGA,000014,,,,,0,12,,,M,,M,,*60
$GPGSA,A,1,04,09,12,14,15,17,18,22,25,26,27,37,,,*1C
$GPGSV,3,1,12,04,08,101,00,09,86,040,00,12,55,250,00,14,21,318,00*7F
$GPGLL,,,,,000014,V,N*61
$GPBOD,,T,,M,,*47
$GPVTG,,T,,M,,N,,K*4E
$PGRME,,M,,M,,M*00
$PGRMZ,,f,1*29
$PGRMM,WGS 84*06
$GPRTE,1,1,c,*37
$GPRMC,000016,V,,,,,,,100711,1.0,E,N*38
$GPRMB,V,,,,,,,,,,,,V,N*04
$GPGGA,000016,,,,,0,12,,,M,,M,,*62
$GPGSA,A,1,04,09,12,14,15,17,18,22,25,26,27,37,,,*1C
$GPGSV,3,2,12,15,31,183,00,17,33,053,00,18,08,253,00,22,12,288,00*73
$GPGLL,,,,,000016,V,N*63
$GPBOD,,T,,M,,*47
$GPVTG,,T,,M,,N,,K*4E
$PGRME,,M,,M,,M*00
$PGRMZ,,f,1*29
$PGRMM,WGS 84*06
$GPRTE,1,1,c,*37
$GPRMC,000018,V,,,,,,,240711,1.0,E,N*31
$GPRMB,V,,,,,,,,,,,,V,N*04
$GPGGA,000018,,,,,0,12,,,M,,M,,*6C
$GPGSA,A,1,04,09,12,14,15,17,18,22,25,26,27,37,,,*1C
$GPGSV,3,3,12,25,18,248,00,26,02,160,00,27,72,107,00,37,65,090,00*73
$GPGLL,,,,,000018,V,N*6D
$GPBOD,,T,,M,,*47
$GPVTG,,T,,M,,N,,K*4E
$PGRME,,M,,M,,M*00
$PGRMZ,,f,1*29
$PGRMM,WGS 84*06
$GPRTE,1,1,c,*37
$GPRMC,000020,V,,,,,,,240711,1.0,E,N*3A
$GPRMB,V,,,,,,,,,,,,V,N*04
$GPGGA,000020,,,,,0,12,,,M,,M,,*67
$GPGSA,A,1,04,09,12,14,15,17,18,22,25,26,27,37,,,*1C
$GPGSV,3,1,12,04,08,101,00,09,86,040,00,12,55,250,00,14,21,318,00*7F
$GPGLL,,,,,000020,V,N*66
$GPBOD,,T,,M,,*47
$GPVTG,,T,,M,,N,,K*4E
$PGRME,,M,,M,,M*00
$PGRMZ,,f,1*29
$PGRMM,WGS 84*06
$GPRTE,1,1,c,*37
$GPRMC,000022,V,,,,,,,240711,1.0,E,N*38
$GPRMB,V,,,,,,,,,,,,V,N*04
$GPGGA,000022,,,,,0,12,,,M,,M,,*65
$GPGSA,A,1,04,09,12,14,15,17,18,22,25,26,27,37,,,*1C
$GPGSV,3,2,12,15,31,183,00,17,33,053,00,18,08,253,00,22,12,288,00*73
$GPGLL,,,,,000022,V,N*64
$GPBOD,,T,,M,,*47
$GPVTG,,T,,M,,N,,K*4E
$PGRME,,M,,M,,M*00
$PGRMZ,,f,1*29
$PGRMM,WGS 84*06
$GPRTE,1,1,c,*37
$GPRMC,000024,V,,,,,,,240711,1.0,E,N*3E
$GPRMB,V,,,,,,,,,,,,V,N*04
$GPGGA,000024,,,,,0,12,,,M,,M,,*63
$GPGSA,A,1,04,09,12,14,15,17,18,22,25,26,27,37,,,*1C
$GPGSV,3,3,12,25,18,248,00,26,02,160,00,27,72,107,00,37,65,090,00*73
$GPGLL,,,,,000024,V,N*62
$GPBOD,,T,,M,,*47
$GPVTG,,T,,M,,N,,K*4E
$PGRME,,M,,M,,M*00
$PGRMZ,,f,1*29
$PGRMM,WGS 84*06
$GPRTE,1,1,c,*37
$GPRMC,000026,V,,,,,,,240711,1.0,E,N*3C
$GPRMB,V,,,,,,,,,,,,V,N*04
$GPGGA,000026,,,,,0,12,,,M,,M,,*61
$GPGSA,A,1,04,09,12,14,15,17,18,22,25,26,27,37,,,*1C
$GPGSV,3,1,12,04,08,101,00,09,86,040,00,12,55,250,00,14,21,318,00*7F
$GPGLL,,,,,000026,V,N*60
$GPBOD,,T,,M,,*47
$GPVTG,,T,,M,,N,,K*4E
$PGRME,,M,,M,,M*00
$PGRMZ,,f,1*29
$PGRMM,WGS 84*06
$GPRTE,1,1,c,*37
$GPRMC,000028,V,,,,,,,240711,1.0,E,N*32
$GPRMB,V,,,,,,,,,,,,V,N*04
$GPGGA,000028,,,,,0,12,,,M,,M,,*6F
$GPGSA,A,1,04,09,12,14,15,17,18,22,25,26,27,37,,,*1C
$GPGSV,3,2,12,15,31,183,00,17,33,053,00,18,08,253,00,22,12,288,00*73
$GPGLL,,,,,000028,V,N*6E
$GPBOD,,T,,M,,*47
$GPVTG,,T,,M,,N,,K*4E
$PGRME,,M,,M,,M*00
$PGRMZ,,f,1*29
$PGRMM,WGS 84*06
$GPRTE,1,1,c,*37
$GPRMC,000030,V,,,,,,,240711,1.0,E,N*3B
$GPRMB,V,,,,,,,,,,,,V,N*04
$GPGGA,000030,,,,,0,12,,,M,,M,,*66
$GPGSA,A,1,04,09,12,14,15,17,18,22,25,26,27,37,,,*1C
$GPGSV,3,3,12,25,18,248,00,26,02,160,00,27,72,107,00,37,65,090,00*73
$GPGLL,,,,,000030,V,N*67
$GPBOD,,T,,M,,*47
$GPVTG,,T,,M,,N,,K*4E
$PGRME,,M,,M,,M*00
$PGRMZ,,f,1*29
$PGRMM,WGS 84*06
$GPRTE,1,1,c,*37
$GPRMC,000032,V,,,,,,,240711,1.0,E,N*39
$GPRMB,V,,,,,,,,,,,,V,N*04
$GPGGA,000032,,,,,0,12,,,M,,M,,*64
$GPGSA,A,1,04,09,12,14,15,17,18,22,25,26,27,37,,,*1C
$GPGSV,3,1,12,04,08,101,00,09,86,040,00,12,55,250,00,14,21,318,00*7F
$GPGLL,,,,,000032,V,N*65
$GPBOD,,T,,M,,*47
$GPVTG,,T,,M,,N,,K*4E
$PGRME,,M,,M,,M*00
$PGRMZ,,f,1*29
$PGRMM,WGS 84*06
$GPRTE,1,1,c,*37
$GPRMC,000034,V,,,,,,,240711,1.0,E,N*3F
$GPRMB,V,,,,,,,,,,,,V,N*04
$GPGGA,000034,,,,,0,12,,,M,,M,,*62
$GPGSA,A,1,04,09,12,14,15,17,18,22,25,26,27,37,,,*1C
$GPGSV,3,2,12,15,31,183,00,17,33,053,00,18,08,253,00,22,12,288,00*73
$GPGLL,,,,,000034,V,N*63
$GPBOD,,T,,M,,*47
$GPVTG,,T,,M,,N,,K*4E
$PGRME,,M,,M,,M*00
$PGRMZ,,f,1*29
$PGRMM,WGS 84*06
$GPRTE,1,1,c,*37
$GPRMC,000036,V,,,,,,,240711,1.0,E,N*3D
$GPRMB,V,,,,,,,,,,,,V,N*04
$GPGGA,000036,,,,,0,12,,,M,,M,,*60
$GPGSA,A,1,04,09,12,14,15,17,18,22,25,26,27,37,,,*1C
$GPGSV,3,3,12,25,18,248,00,26,02,160,00,27,72,107,00,37,65,090,00*73
$GPGLL,,,,,000036,V,N*61
$GPBOD,,T,,M,,*47
$GPVTG,,T,,M,,N,,K*4E
$PGRME,,M,,M,,M*00
$PGRMZ,,f,1*29
$PGRMM,WGS 84*06
$GPRTE,1,1,c,*37
$GPRMC,000038,V,,,,,,,240711,1.0,E,N*33
$GPRMB,V,,,,,,,,,,,,V,N*04
$GPGGA,000038,,,,,0,12,,,M,,M,,*6E
$GPGSA,A,1,02,04,09,12,14,15,17,18,22,25,27,37,,,*1A
$GPGSV,3,1,12,02,16,122,00,04,08,101,00,09,61,131,00,12,55,250,00*79
$GPGLL,,,,,000038,V,N*6F
$GPBOD,,T,,M,,*47
$GPVTG,,T,,M,,N,,K*4E
$PGRME,,M,,M,,M*00
$PGRMZ,,f,1*29
$PGRMM,WGS 84*06
$GPRTE,1,1,c,*37
$GPRMC,000040,V,,,,,,,240711,1.0,E,N*3C
$GPRMB,V,,,,,,,,,,,,V,N*04
$GPGGA,000040,,,,,0,12,,,M,,M,,*61
$GPGSA,A,1,02,04,09,12,14,15,17,18,25,27,29,37,,,*11
$GPGSV,3,2,12,14,21,318,00,15,31,183,00,17,33,053,00,18,08,253,00*7E
$GPGLL,,,,,000040,V,N*60
$GPBOD,,T,,M,,*47
$GPVTG,,T,,M,,N,,K*4E
$PGRME,,M,,M,,M*00
$PGRMZ,,f,1*29
$PGRMM,WGS 84*06
$GPRTE,1,1,c,*37
$GPRMC,000042,V,,,,,,,240711,1.0,E,N*3E
$GPRMB,V,,,,,,,,,,,,V,N*04
$GPGGA,000042,,,,,0,12,,,M,,M,,*63
$GPGSA,A,1,02,04,09,12,14,15,17,18,25,27,29,37,,,*11
$GPGSV,3,3,12,25,18,248,00,27,72,107,00,29,09,204,00,37,65,090,00*76
$GPGLL,,,,,000042,V,N*62
$GPBOD,,T,,M,,*47
$GPVTG,,T,,M,,N,,K*4E
$PGRME,,M,,M,,M*00
$PGRMZ,,f,1*29
$PGRMM,WGS 84*06
$GPRTE,1,1,c,*37
$GPRMC,000044,V,,,,,,,240711,1.0,E,N*38
$GPRMB,V,,,,,,,,,,,,V,N*04
$GPGGA,000044,,,,,0,12,,,M,,M,,*65
$GPGSA,A,1,02,04,09,12,14,15,17,18,25,27,29,37,,,*11
$GPGSV,3,1,12,02,16,122,00,04,08,101,00,09,61,131,00,12,55,250,00*79
$GPGLL,,,,,000044,V,N*64
$GPBOD,,T,,M,,*47
$GPVTG,,T,,M,,N,,K*4E
$PGRME,,M,,M,,M*00
$PGRMZ,,f,1*29
$PGRMM,WGS 84*06
$GPRTE,1,1,c,*37
$GPRMC,000046,V,,,,,,,240711,1.0,E,N*3A
$GPRMB,V,,,,,,,,,,,,V,N*04
$GPGGA,000046,,,,,0,12,,,M,,M,,*67
$GPGSA,A,1,02,04,09,12,14,15,17,18,25,27,29,37,,,*11
$GPGSV,3,2,12,14,21,318,00,15,31,183,00,17,33,053,00,18,08,253,00*7E
$GPGLL,,,,,000046,V,N*66
$GPBOD,,T,,M,,*47
$GPVTG,,T,,M,,N,,K*4E
$PGRME,,M,,M,,M*00
$PGRMZ,,f,1*29
$PGRMM,WGS 84*06
$GPRTE,1,1,c,*37
$GPRMC,000048,V,,,,,,,240711,1.0,E,N*34
$GPRMB,V,,,,,,,,,,,,V,N*04
$GPGGA,000048,,,,,0,12,,,M,,M,,*69
$GPGSA,A,1,02,04,09,12,14,15,17,18,25,27,29,37,,,*11
$GPGSV,3,3,12,25,18,248,00,27,72,107,00,29,09,204,00,37,65,090,00*76
$GPGLL,,,,,000048,V,N*68
$GPBOD,,T,,M,,*47
$GPVTG,,T,,M,,N,,K*4E
$PGRME,,M,,M,,M*00
$PGRMZ,,f,1*29
$PGRMM,WGS 84*06
$GPRTE,1,1,c,*37
$GPRMC,000050,V,,,,,,,240711,1.0,E,N*3D
$GPRMB,V,,,,,,,,,,,,V,N*04
$GPGGA,000050,,,,,0,12,,,M,,M,,*60
$GPGSA,A,1,02,04,09,12,14,15,17,18,25,27,29,37,,,*11
$GPGSV,3,1,12,02,16,122,00,04,08,101,00,09,61,131,00,12,78,295,00*7F
$GPGLL,,,,,000050,V,N*61
$GPBOD,,T,,M,,*47
$GPVTG,,T,,M,,N,,K*4E
$PGRME,,M,,M,,M*00
$PGRMZ,,f,1*29
$PGRMM,WGS 84*06
$GPRTE,1,1,c,*37
$GPRMC,123424,A,4907.4040,N,01055.8158,E,0.0,350.0,240711,1.0,E,A*10
$GPRMB,A,,,,,,,,,,,,V,A*1C
$GPGGA,123424,4907.4040,N,01055.8158,E,1,12,2.1,413.0,M,46.5,M,,*4E
$GPGSA,A,2,02,04,09,12,14,15,17,18,25,27,29,37,2.3,2.1,1.0*3F
$GPGSV,3,2,12,14,38,300,00,15,05,178,00,17,13,042,00,18,08,253,00*7E
$GPGLL,4907.4040,N,01055.8158,E,123424,A,A*4A
$GPBOD,,T,,M,,*47
$GPVTG,350.0,T,349.0,M,0.0,N,0.0,K*46
$PGRME,21.2,M,55.5,M,59.4,M*12
$PGRMZ,1355,f,2*28
$PGRMM,WGS 84*06
$GPRTE,1,1,c,*37
$GPRMC,123426,A,4907.4043,N,01055.8151,E,0.0,350.0,240711,1.0,E,A*18
$GPRMB,A,,,,,,,,,,,,V,A*1C
$GPGGA,123426,4907.4043,N,01055.8151,E,1,12,2.1,413.0,M,46.5,M,,*46
$GPGSA,A,2,02,04,09,12,14,15,17,18,25,27,29,37,2.3,2.1,1.0*3F
$GPGSV,3,3,12,25,41,265,00,27,47,131,00,29,09,204,00,37,65,090,00*76
$GPGLL,4907.4043,N,01055.8151,E,123426,A,A*42
$GPBOD,,T,,M,,*47
$GPVTG,350.0,T,349.0,M,0.0,N,0.0,K*46
$PGRME,19.3,M,53.9,M,57.2,M*1A
$PGRMZ,1355,f,2*28
$GPRMC,123428,A,4907.4037,N,01055.8149,E,0.0,350.0,240711,1.0,E,A*1C
$GPRMB,A,,,,,,,,,,,,V,A*1C
$GPGGA,123428,4907.4037,N,01055.8149,E,1,12,2.1,413.0,M,46.5,M,,*42
$GPGSA,A,2,02,04,09,12,14,15,17,18,25,27,29,37,2.3,2.1,1.0*3F
$GPGSV,3,1,12,02,16,122,00,04,21,078,00,09,61,131,00,12,79,298,00*77
$GPGLL,4907.4037,N,01055.8149,E,123428,A,A*46
$GPBOD,,T,,M,,*47
$GPVTG,350.0,T,349.0,M,0.0,N,0.0,K*46
$PGRME,18.8,M,53.2,M,56.4,M*1C
$PGRMZ,1355,f,2*28
$PGRMM,WGS 84*06
$GPRTE,1,1,c,*37
$GPRMC,123430,A,4907.4033,N,01055.8149,E,0.0,350.0,240711,1.0,E,A*11
$GPRMB,A,,,,,,,,,,,,V,A*1C
$GPGGA,123430,4907.4033,N,01055.8149,E,1,12,2.1,413.0,M,46.5,M,,*4F
$GPGSA,A,2,02,04,09,12,14,15,17,18,25,27,29,37,2.3,2.1,1.0*3F
$GPGSV,3,2,12,14,38,300,00,15,05,178,00,17,13,042,00,18,08,253,00*7E
$GPGLL,4907.4033,N,01055.8149,E,123430,A,A*4B
$GPBOD,,T,,M,,*47
$GPVTG,350.0,T,349.0,M,0.0,N,0.0,K*46
$PGRME,18.5,M,52.9,M,56.0,M*1F
$PGRMZ,1355,f,2*28
$PGRMM,WGS 84*06
$GPRTE,1,1,c,*37
$GPRMC,123434,A,4907.4043,N,01055.8158,E,0.0,350.0,240711,1.0,E,A*12
$GPRMB,A,,,,,,,,,,,,V,A*1C
$GPGGA,123434,4907.4043,N,01055.8158,E,1,12,1.8,411.7,M,46.5,M,,*43
$GPGSA,A,3,02,04,09,12,14,15,17,18,25,27,29,37,2.6,1.8,1.8*39
$GPGSV,3,3,12,25,41,265,00,27,47,131,00,29,10,205,00,37,65,090,00*7F
$GPGLL,4907.4043,N,01055.8158,E,123434,A,A*48
$GPBOD,,T,,M,,*47
$GPVTG,350.0,T,349.0,M,0.0,N,0.0,K*46
$PGRME,17.5,M,33.4,M,37.7,M*1A
$PGRMZ,1351,f,3*2D
$PGRMM,WGS 84*06
$GPRTE,1,1,c,*37
$GPRMC,123436,A,4907.4045,N,01055.8166,E,0.0,350.0,240711,1.0,E,A*1B
$GPRMB,A,,,,,,,,,,,,V,A*1C
$GPGGA,123436,4907.4045,N,01055.8166,E,1,12,1.8,410.1,M,46.5,M,,*4D
$GPGSA,A,3,02,04,09,12,14,15,17,18,25,27,29,37,2.6,1.8,1.8*39
$GPGSV,3,1,12,02,17,121,00,04,21,078,00,09,60,131,00,12,79,298,00*74
$GPGLL,4907.4045,N,01055.8166,E,123436,A,A*41
$GPBOD,,T,,M,,*47
$GPVTG,350.0,T,349.0,M,0.0,N,0.0,K*46
$PGRME,12.7,M,23.5,M,26.7,M*1D
$PGRMZ,1345,f,3*28
$PGRMM,WGS 84*06
$GPRTE,1,1,c,*37
$GPRMC,123438,A,4907.4044,N,01055.8167,E,0.0,350.0,240711,1.0,E,A*15
$GPRMB,A,,,,,,,,,,,,V,A*1C
$GPGGA,123438,4907.4044,N,01055.8167,E,1,12,1.9,409.8,M,46.5,M,,*43
$GPGSA,A,3,02,04,09,12,14,15,17,18,25,27,29,37,2.6,1.9,1.8*38
$GPGSV,3,2,12,14,38,299,00,15,05,178,00,17,13,042,00,18,08,253,00*7F
$GPGLL,4907.4044,N,01055.8167,E,123438,A,A*4F
$GPBOD,,T,,M,,*47
$GPVTG,350.0,T,349.0,M,0.0,N,0.0,K*46
$PGRME,11.2,M,20.2,M,23.1,M*1C
$PGRMZ,1344,f,3*29
$PGRMM,WGS 84*06
$GPRTE,1,1,c,*37
$GPRMC,123440,A,4907.4044,N,01055.8169,E,0.0,350.0,240711,1.0,E,A*14
$GPRMB,A,,,,,,,,,,,,V,A*1C
$GPGGA,123440,4907.4044,N,01055.8169,E,1,12,1.9,408.9,M,46.5,M,,*42
$GPGSA,A,3,02,04,09,12,14,15,17,18,25,27,29,37,2.6,1.9,1.8*38
$GPGSV,3,3,12,25,41,265,00,27,47,131,00,29,10,205,00,37,65,090,00*7F
$GPGLL,4907.4044,N,01055.8169,E,123440,A,A*4E
$GPBOD,,T,,M,,*47
$GPVTG,350.0,T,349.0,M,0.0,N,0.0,K*46
$PGRME,9.9,M,17.5,M,20.1,M*2E
$PGRMZ,1342,f,3*2F
$PGRMM,WGS 84*06
$GPRTE,1,1,c,*37
$GPRMC,123442,A,4907.4044,N,01055.8168,E,1.3,304.8,240711,1.0,E,A*1C
$GPRMB,A,,,,,,,,,,,,V,A*1C
$GPGGA,123442,4907.4044,N,01055.8168,E,1,12,1.9,408.6,M,46.5,M,,*4E
$GPGSA,A,3,02,04,09,12,14,15,17,18,25,27,29,37,2.6,1.9,1.8*38
$GPGSV,3,1,12,02,17,121,00,04,21,078,00,09,60,131,00,12,79,298,00*74
$GPGLL,4907.4044,N,01055.8168,E,123442,A,A*4D
$GPBOD,,T,,M,,*47
$GPVTG,304.8,T,303.8,M,1.3,N,2.4,K*4D
$PGRME,8.8,M,15.2,M,17.6,M*28
$PGRMZ,1340,f,3*2D
$PGRMM,WGS 84*06
$GPRTE,1,1,c,*37
$GPRMC,123444,A,4907.4045,N,01055.8165,E,0.0,304.8,240711,1.0,E,A*14
$GPRMB,A,,,,,,,,,,,,V,A*1C
$GPGGA,123444,4907.4045,N,01055.8165,E,1,12,1.9,408.4,M,46.5,M,,*46
$GPGSA,A,3,02,04,09,12,14,15,17,18,25,27,29,37,2.6,1.9,1.8*38
$GPGSV,3,2,12,14,38,299,00,15,05,178,00,17,13,042,00,18,08,253,00*7F
$GPGLL,4907.4045,N,01055.8165,E,123444,A,A*47
$GPBOD,,T,,M,,*47
$GPVTG,304.8,T,303.8,M,0.0,N,0.0,K*49
$PGRME,8.8,M,14.9,M,17.4,M*20
$PGRMZ,1340,f,3*2D
$PGRMM,WGS 84*06
$GPRTE,1,1,c,*37
$GPRMC,123446,A,4907.4045,N,01055.8167,E,0.0,304.8,240711,1.0,E,A*14
$GPRMB,A,,,,,,,,,,,,V,A*1C
$GPGGA,123446,4907.4045,N,01055.8167,E,1,12,1.9,408.2,M,46.5,M,,*40
$GPGSA,A,3,02,04,09,12,14,15,17,22,25,27,29,37,2.6,1.9,1.9*30
$GPGSV,3,3,12,25,41,265,00,27,47,131,00,29,10,205,00,37,65,090,00*7F
$GPGLL,4907.4045,N,01055.8167,E,123446,A,A*47
$GPBOD,,T,,M,,*47
$GPVTG,304.8,T,303.8,M,0.0,N,0.0,K*49
$PGRME,7.2,M,14.8,M,16.4,M*25
$PGRMZ,1339,f,3*23
$PGRMM,WGS 84*06
$GPRTE,1,1,c,*37
$GPRMC,123448,A,4907.4045,N,01055.8169,E,0.0,304.8,240711,1.0,E,A*14
$GPRMB,A,,,,,,,,,,,,V,A*1C
$GPGGA,123448,4907.4045,N,01055.8169,E,1,12,1.9,407.9,M,46.5,M,,*44
$GPGSA,A,3,02,04,09,12,14,15,17,22,25,27,29,37,2.6,1.9,1.9*30
$GPGSV,3,1,12,02,17,121,00,04,21,077,00,09,60,131,00,12,79,298,00*7B
$GPGLL,4907.4045,N,01055.8169,E,123448,A,A*47
$GPBOD,,T,,M,,*47
$GPVTG,304.8,T,303.8,M,0.0,N,0.0,K*49
$PGRME,7.2,M,14.7,M,16.3,M*2D
$PGRMZ,1338,f,3*22
$PGRMM,WGS 84*06
$GPRTE,1,1,c,*37
$GPRMC,123450,A,4907.4045,N,01055.8169,E,0.0,304.8,240711,1.0,E,A*1D
$GPRMB,A,,,,,,,,,,,,V,A*1C
$GPGGA,123450,4907.4045,N,01055.8169,E,1,12,1.9,407.8,M,46.5,M,,*4C
$GPGSA,A,3,02,04,09,12,14,15,17,22,25,27,29,33,2.6,1.9,1.9*34
$GPGSV,3,2,12,14,38,299,00,15,05,178,00,17,13,042,00,22,12,288,00*7B
$GPGLL,4907.4045,N,01055.8169,E,123450,A,A*4E
$GPBOD,,T,,M,,*47
$GPVTG,304.8,T,303.8,M,0.0,N,0.0,K*49
$PGRME,7.2,M,14.6,M,16.2,M*2D
$PGRMZ,1338,f,3*22
$PGRMM,WGS 84*06
$GPRTE,1,1,c,*37
$GPRMC,123452,A,4907.4045,N,01055.8168,E,0.0,304.8,240711,1.0,E,A*1E
$GPRMB,A,,,,,,,,,,,,V,A*1C
$GPGGA,123452,4907.4045,N,01055.8168,E,1,12,1.6,407.8,M,46.5,M,,*40
$GPGSA,A,3,02,04,09,12,14,15,17,22,25,27,29,33,2.5,1.6,1.9*38
$GPGSV,3,3,12,25,41,265,00,27,47,131,00,29,10,204,00,33,65,090,00*7A
$GPGLL,4907.4045,N,01055.8168,E,123452,A,A*4D
$GPBOD,,T,,M,,*47
$GPVTG,304.8,T,303.8,M,0.0,N,0.0,K*49
$PGRME,7.2,M,14.5,M,16.2,M*2E
$PGRMZ,1338,f,3*22
$PGRMM,WGS 84*06
$GPRTE,1,1,c,*37
$GPRMC,123454,A,4907.4046,N,01055.8169,E,0.0,304.8,240711,1.0,E,A*1A
$GPRMB,A,,,,,,,,,,,,V,A*1C
$GPGGA,123454,4907.4046,N,01055.8169,E,1,12,1.6,407.7,M,46.5,M,,*4B
$GPGSA,A,3,02,04,09,12,14,15,17,22,25,27,29,33,2.5,1.6,1.9*38
$GPGSV,3,1,12,02,17,121,00,04,21,077,00,09,60,131,00,12,79,298,00*7B
$GPGLL,4907.4046,N,01055.8169,E,123454,A,A*49
$GPBOD,,T,,M,,*47
$GPVTG,304.8,T,303.8,M,0.0,N,0.0,K*49
$PGRME,7.2,M,14.5,M,16.2,M*2E
$PGRMZ,1338,f,3*22
$PGRMM,WGS 84*06
$GPRTE,1,1,c,*37
$GPRMC,123456,A,4907.4046,N,01055.8167,E,0.0,304.8,240711,1.0,E,A*16
$GPRMB,A,,,,,,,,,,,,V,A*1C
$GPGGA,123456,4907.4046,N,01055.8167,E,1,12,1.6,407.7,M,46.5,M,,*47
$GPGSA,A,3,02,04,09,12,14,15,17,22,25,27,29,33,2.5,1.6,1.9*38
$GPGSV,3,2,12,14,38,299,00,15,05,178,00,17,13,042,00,22,12,288,00*7B
$GPGLL,4907.4046,N,01055.8167,E,123456,A,A*45
$GPBOD,,T,,M,,*47
$GPVTG,304.8,T,303.8,M,0.0,N,0.0,K*49
$PGRME,7.3,M,14.5,M,16.2,M*2F
$PGRMZ,1338,f,3*22
$PGRMM,WGS 84*06
$GPRTE,1,1,c,*37
$GPRMC,123458,A,4907.4046,N,01055.8165,E,0.0,304.8,240711,1.0,E,A*1A
$GPRMB,A,,,,,,,,,,,,V,A*1C
$GPGGA,123458,4907.4046,N,01055.8165,E,1,12,1.6,407.8,M,46.5,M,,*44
$GPGSA,A,3,02,04,09,12,14,15,17,22,25,27,29,33,2.5,1.6,1.9*38
$GPGSV,3,3,12,25,41,265,00,27,47,131,00,29,10,204,00,33,65,090,00*7A
$GPGLL,4907.4046,N,01055.8165,E,123458,A,A*49
$GPBOD,,T,,M,,*47
$GPVTG,304.8,T,303.8,M,0.0,N,0.0,K*49
$PGRME,7.3,M,14.5,M,16.2,M*2F
$PGRMZ,1338,f,3*22
$PGRMM,WGS 84*06
$GPRTE,1,1,c,*37
$GPRMC,123500,A,4907.4045,N,01055.8164,E,0.0,304.8,240711,1.0,E,A*14
$GPRMB,A,,,,,,,,,,,,V,A*1C
$GPGGA,123500,4907.4045,N,01055.8164,E,1,12,1.6,407.8,M,46.5,M,,*4A
$GPGSA,A,3,02,04,09,12,14,15,17,22,25,27,29,33,2.5,1.6,1.9*38
$GPGSV,3,1,12,02,17,121,00,04,21,077,00,09,60,131,00,12,79,299,00*7A
$GPGLL,4907.4045,N,01055.8164,E,123500,A,A*47
$GPBOD,,T,,M,,*47
$GPVTG,304.8,T,303.8,M,0.0,N,0.0,K*49
$PGRME,7.3,M,14.5,M,16.3,M*2E
$PGRMZ,1338,f,3*22
$PGRMM,WGS 84*06
$GPRTE,1,1,c,*37
$GPRMC,123502,A,4907.4046,N,01055.8163,E,0.0,304.8,240711,1.0,E,A*12
$GPRMB,A,,,,,,,,,,,,V,A*1C
$GPGGA,123502,4907.4046,N,01055.8163,E,1,12,1.6,407.9,M,46.5,M,,*4D
$GPGSA,A,3,02,04,09,12,14,15,17,25,26,27,29,33,2.5,1.6,1.9*3C
$GPGSV,3,2,12,14,38,299,00,15,05,178,00,17,13,042,00,25,41,265,00*79
$GPGLL,4907.4046,N,01055.8163,E,123502,A,A*41
$GPBOD,,T,,M,,*47
$GPVTG,304.8,T,303.8,M,0.0,N,0.0,K*49
$PGRME,7.4,M,14.5,M,16.3,M*29
$PGRMZ,1338,f,3*22
$PGRMM,WGS 84*06
$GPRTE,1,1,c,*37
$GPRMC,123504,A,4907.4046,N,01055.8161,E,0.0,304.8,240711,1.0,E,A*16
$GPRMB,A,,,,,,,,,,,,V,A*1C
$GPGGA,123504,4907.4046,N,01055.8161,E,1,12,1.6,408.0,M,46.5,M,,*4F
$GPGSA,A,3,02,04,09,12,14,15,17,25,26,27,29,33,2.5,1.6,1.9*3C
$GPGSV,3,3,12,26,02,160,00,27,47,131,00,29,10,204,00,33,65,090,00*78
$GPGLL,4907.4046,N,01055.8161,E,123504,A,A*45
$GPBOD,,T,,M,,*47
$GPVTG,304.8,T,303.8,M,0.0,N,0.0,K*49
$PGRME,7.4,M,14.5,M,16.3,M*29
$PGRMZ,1339,f,3*23
$PGRMM,WGS 84*06
$GPRTE,1,1,c,*37
$GPRMC,123506,A,4907.4046,N,01055.8161,E,0.0,304.8,240711,1.0,E,A*14
$GPRMB,A,,,,,,,,,,,,V,A*1C
$GPGGA,123506,4907.4046,N,01055.8161,E,1,12,1.6,408.0,M,46.5,M,,*4D
$GPGSA,A,3,02,04,09,12,14,15,17,25,26,27,29,33,2.5,1.6,1.9*3C
$GPGSV,3,1,12,02,17,121,00,04,21,077,00,09,60,131,00,12,79,299,00*7A
$GPGLL,4907.4046,N,01055.8161,E,123506,A,A*47
$GPBOD,,T,,M,,*47
$GPVTG,304.8,T,303.8,M,0.0,N,0.0,K*49
$PGRME,7.4,M,14.5,M,16.3,M*29
$PGRMZ,1339,f,3*23
$PGRMM,WGS 84*06
$GPRTE,1,1,c,*37
$GPRMC,123508,A,4907.4046,N,01055.8161,E,0.0,304.8,240711,1.0,E,A*1A
$GPRMB,A,,,,,,,,,,,,V,A*1C
$GPGGA,123508,4907.4046,N,01055.8161,E,1,12,1.6,408.0,M,46.5,M,,*43
$GPGSA,A,3,02,04,09,12,14,15,17,25,26,27,29,33,2.5,1.6,1.9*3C
$GPGSV,3,2,12,14,38,299,00,15,05,178,00,17,13,042,00,25,41,265,00*79
$GPGLL,4907.4046,N,01055.8161,E,123508,A,A*49
$GPBOD,,T,,M,,*47
$GPVTG,304.8,T,303.8,M,0.0,N,0.0,K*49
$PGRME,7.4,M,14.5,M,16.3,M*29
$PGRMZ,1339,f,3*23
$PGRMM,WGS 84*06
$GPRTE,1,1,c,*37
$GPRMC,123510,A,4907.4046,N,01055.8162,E,0.0,304.8,240711,1.0,E,A*10
$GPRMB,A,,,,,,,,,,,,V,A*1C
$GPGGA,123510,4907.4046,N,01055.8162,E,1,12,1.6,408.0,M,46.5,M,,*49
$GPGSA,A,3,02,04,09,12,14,15,17,25,26,27,29,33,2.5,1.6,1.9*3C
$GPGSV,3,3,12,26,02,160,00,27,47,131,00,29,10,204,00,33,65,090,00*78
$GPGLL,4907.4046,N,01055.8162,E,123510,A,A*43
$GPBOD,,T,,M,,*47
$GPVTG,304.8,T,303.8,M,0.0,N,0.0,K*49
$PGRME,7.4,M,14.5,M,16.3,M*29
$PGRMZ,1339,f,3*23
$PGRMM,WGS 84*06
$GPRTE,1,1,c,*37
$GPRMC,123512,A,4907.4046,N,01055.8162,E,0.0,304.8,240711,1.0,E,A*12
$GPRMB,A,,,,,,,,,,,,V,A*1C
$GPGGA,123512,4907.4046,N,01055.8162,E,1,12,1.6,408.0,M,46.5,M,,*4B
$GPGSA,A,3,02,04,09,12,14,15,17,25,26,27,29,33,2.5,1.6,1.9*3C
$GPGSV,3,1,12,02,17,121,00,04,21,077,00,09,60,131,00,12,79,299,00*7A
$GPGLL,4907.4046,N,01055.8162,E,123512,A,A*41
$GPBOD,,T,,M,,*47
$GPVTG,304.8,T,303.8,M,0.0,N,0.0,K*49
$PGRME,7.4,M,14.4,M,16.3,M*28
$PGRMZ,1339,f,3*23
$PGRMM,WGS 84*06
$GPRTE,1,1,c,*37
$GPRMC,123514,A,4907.4045,N,01055.8162,E,0.0,304.8,240711,1.0,E,A*17
$GPRMB,A,,,,,,,,,,,,V,A*1C
$GPGGA,123514,4907.4045,N,01055.8162,E,1,12,1.6,408.1,M,46.5,M,,*4F
$GPGSA,A,3,02,04,09,12,14,15,17,25,26,27,29,33,2.5,1.6,1.9*3C
$GPGSV,3,2,12,14,38,299,00,15,05,178,00,17,13,042,00,25,41,265,00*79
$GPGLL,4907.4045,N,01055.8162,E,123514,A,A*44
$GPBOD,,T,,M,,*47
$GPVTG,304.8,T,303.8,M,0.0,N,0.0,K*49
$PGRME,7.5,M,14.5,M,16.3,M*28
$PGRMZ,1339,f,3*23
$PGRMM,WGS 84*06
$GPRTE,1,1,c,*37
$GPRMC,123516,A,4907.4046,N,01055.8163,E,0.0,304.8,240711,1.0,E,A*17
$GPRMB,A,,,,,,,,,,,,V,A*1C
$GPGGA,123516,4907.4046,N,01055.8163,E,1,12,1.6,408.1,M,46.5,M,,*4F
$GPGSA,A,3,02,04,09,12,14,15,17,25,26,27,29,33,2.5,1.6,1.9*3C
$GPGSV,3,3,12,26,02,160,00,27,47,131,00,29,10,204,00,33,65,090,00*78
$GPGLL,4907.4046,N,01055.8163,E,123516,A,A*44
$GPBOD,,T,,M,,*47
$GPVTG,304.8,T,303.8,M,0.0,N,0.0,K*49
$PGRME,7.5,M,14.5,M,16.3,M*28
$PGRMZ,1339,f,3*23
$PGRMM,WGS 84*06
$GPRTE,1,1,c,*37
$GPRMC,123518,A,4907.4047,N,01055.8164,E,0.0,304.8,240711,1.0,E,A*1F
$GPRMB,A,,,,,,,,,,,,V,A*1C
$GPGGA,123518,4907.4047,N,01055.8164,E,1,11,1.6,408.2,M,46.5,M,,*47
$GPGSA,A,3,02,04,09,12,14,15,17,25,27,29,33,,2.5,1.6,1.9*38
$GPGSV,3,1,11,02,17,121,00,04,21,077,00,09,60,131,00,12,79,299,00*79
$GPGLL,4907.4047,N,01055.8164,E,123518,A,A*4C
$GPBOD,,T,,M,,*47
$GPVTG,304.8,T,303.8,M,0.0,N,0.0,K*49
$PGRME,7.6,M,14.5,M,16.3,M*2B
$PGRMZ,1339,f,3*23
$PGRMM,WGS 84*06
$GPRTE,1,1,c,*37
$GPRMC,123520,A,4907.4048,N,01055.8164,E,0.0,304.8,240711,1.0,E,A*1B
$GPRMB,A,,,,,,,,,,,,V,A*1C
$GPGGA,123520,4907.4048,N,01055.8164,E,1,11,1.6,408.3,M,46.5,M,,*42
$GPGSA,A,3,02,04,09,12,14,15,17,25,27,29,33,,2.5,1.6,1.9*38
$GPGSV,3,2,11,14,38,299,00,15,05,178,00,17,13,042,00,25,41,265,00*7A
$GPGLL,4907.4048,N,01055.8164,E,123520,A,A*48
$GPBOD,,T,,M,,*47
$GPVTG,304.8,T,303.8,M,0.0,N,0.0,K*49
$PGRME,7.6,M,14.5,M,16.3,M*2B
$PGRMZ,1340,f,3*2D
$PGRMM,WGS 84*06
$GPRTE,1,1,c,*37
$GPRMC,123522,A,4907.4048,N,01055.8165,E,0.0,304.8,240711,1.0,E,A*18
$GPRMB,A,,,,,,,,,,,,V,A*1C
$GPGGA,123522,4907.4048,N,01055.8165,E,1,11,1.6,408.4,M,46.5,M,,*46
$GPGSA,A,3,02,04,09,12,14,15,17,25,27,29,33,,2.5,1.6,1.9*38
$GPGSV,3,3,11,27,47,131,00,29,10,204,00,33,65,090,00*4A
$GPGLL,4907.4048,N,01055.8165,E,123522,A,A*4B
$GPBOD,,T,,M,,*47
$GPVTG,304.8,T,303.8,M,0.0,N,0.0,K*49
$PGRME,7.6,M,14.5,M,16.4,M*2C
$PGRMZ,1340,f,3*2D
$PGRMM,WGS 84*06
$GPRTE,1,1,c,*37
$GPRMC,123524,A,4907.4048,N,01055.8165,E,0.0,304.8,240711,1.0,E,A*1E
$GPRMB,A,,,,,,,,,,,,V,A*1C
$GPGGA,123524,4907.4048,N,01055.8165,E,1,11,1.7,408.5,M,46.5,M,,*40
$GPGSA,A,3,02,04,09,12,14,15,17,25,27,29,33,,2.5,1.7,1.9*39
$GPGSV,3,1,11,02,17,121,00,04,21,077,00,09,60,131,00,12,79,299,00*79
$GPGLL,4907.4048,N,01055.8165,E,123524,A,A*4D
$GPBOD,,T,,M,,*47
$GPVTG,304.8,T,303.8,M,0.0,N,0.0,K*49
$PGRME,7.7,M,14.5,M,16.4,M*2D
$PGRMZ,1340,f,3*2D
$PGRMM,WGS 84*06
$GPRTE,1,1,c,*37
$GPRMC,123526,A,4907.4048,N,01055.8166,E,0.0,304.8,240711,1.0,E,A*1F
$GPRMB,A,,,,,,,,,,,,V,A*1C
$GPGGA,123526,4907.4048,N,01055.8166,E,1,11,1.7,408.7,M,46.5,M,,*43
$GPGSA,A,3,02,04,09,12,14,15,17,25,27,29,33,,2.5,1.7,1.9*39
$GPGSV,3,2,11,14,38,299,00,15,05,178,00,17,13,042,00,25,42,265,00*79
$GPGLL,4907.4048,N,01055.8166,E,123526,A,A*4C
$GPBOD,,T,,M,,*47
$GPVTG,304.8,T,303.8,M,0.0,N,0.0,K*49
$PGRME,7.7,M,14.4,M,16.4,M*2C
$PGRMZ,1341,f,3*2C
$PGRMM,WGS 84*06
$GPRTE,1,1,c,*37
$GPRMC,123528,A,4907.4049,N,01055.8168,E,0.0,304.8,240711,1.0,E,A*1E
$GPRMB,A,,,,,,,,,,,,V,A*1C
$GPGGA,123528,4907.4049,N,01055.8168,E,1,11,1.0,408.7,M,46.5,M,,*45
$GPGSA,A,3,02,04,09,12,14,15,17,25,27,29,33,,1.6,1.0,1.3*34
$GPGSV,3,3,11,27,47,131,00,29,10,204,00,33,65,090,00*4A
$GPGLL,4907.4049,N,01055.8168,E,123528,A,A*4D
$GPBOD,,T,,M,,*47
$GPVTG,304.8,T,303.8,M,0.0,N,0.0,K*49
$PGRME,7.8,M,14.3,M,16.2,M*22
$PGRMZ,1341,f,3*2C
$PGRMM,WGS 84*06
$GPRTE,1,1,c,*37
$GPRMC,123530,A,4907.4048,N,01055.8168,E,0.0,304.8,240711,1.0,E,A*16
$GPRMB,A,,,,,,,,,,,,V,A*1C
$GPGGA,123530,4907.4048,N,01055.8168,E,1,11,1.0,408.9,M,46.5,M,,*43
$GPGSA,A,3,02,04,09,12,14,15,17,25,27,29,33,,1.6,1.0,1.3*34
$GPGSV,3,1,11,02,17,121,00,04,21,077,00,09,60,131,00,12,79,299,00*79
$GPGLL,4907.4048,N,01055.8168,E,123530,A,A*45
$GPBOD,,T,,M,,*47
$GPVTG,304.8,T,303.8,M,0.0,N,0.0,K*49
$PGRME,7.8,M,14.0,M,16.0,M*23
$PGRMZ,1341,f,3*2C
$PGRMM,WGS 84*06
$GPRTE,1,1,c,*37
$GPRMC,123532,A,4907.4047,N,01055.8167,E,0.0,304.8,240711,1.0,E,A*14
$GPRMB,A,,,,,,,,,,,,V,A*1C
$GPGGA,123532,4907.4047,N,01055.8167,E,1,11,1.0,409.3,M,46.5,M,,*4A
$GPGSA,A,3,02,04,09,12,14,15,17,25,27,29,33,,1.6,1.0,1.3*34
$GPGSV,3,2,11,14,38,299,00,15,05,178,00,17,13,042,00,25,42,265,00*79
$GPGLL,4907.4047,N,01055.8167,E,123532,A,A*47
$GPBOD,,T,,M,,*47
$GPVTG,304.8,T,303.8,M,0.0,N,0.0,K*49
$PGRME,7.8,M,13.7,M,15.8,M*28
$PGRMZ,1343,f,3*2E
$PGRMM,WGS 84*06
$GPRTE,1,1,c,*37
$GPRMC,123534,A,4907.4045,N,01055.8164,E,0.0,304.8,240711,1.0,E,A*13
$GPRMB,A,,,,,,,,,,,,V,A*1C
$GPGGA,123534,4907.4045,N,01055.8164,E,1,11,1.0,409.5,M,46.5,M,,*4B
$GPGSA,A,3,02,04,09,12,14,15,17,25,27,29,33,,1.6,1.0,1.3*34
$GPGSV,3,3,11,27,46,131,00,29,10,205,00,33,65,090,00*4A
$GPGLL,4907.4045,N,01055.8164,E,123534,A,A*40
$GPBOD,,T,,M,,*47
$GPVTG,304.8,T,303.8,M,0.0,N,0.0,K*49
$PGRME,7.8,M,13.5,M,15.6,M*24
$PGRMZ,1344,f,3*29
$PGRMM,WGS 84*06
$GPRTE,1,1,c,*37
$GPRMC,123536,A,4907.4044,N,01055.8163,E,0.0,304.8,240711,1.0,E,A*17
$GPRMB,A,,,,,,,,,,,,V,A*1C
$GPGGA,123536,4907.4044,N,01055.8163,E,1,11,1.0,409.6,M,46.5,M,,*4C
$GPGSA,A,3,02,04,09,12,14,15,17,25,27,29,33,,1.6,1.0,1.3*34
$GPGSV,3,1,11,02,17,121,00,04,21,077,00,09,60,131,00,12,79,299,00*79
$GPGLL,4907.4044,N,01055.8163,E,123536,A,A*44
$GPBOD,,T,,M,,*47
$GPVTG,304.8,T,303.8,M,0.0,N,0.0,K*49
$PGRME,7.8,M,13.4,M,15.5,M*26
$PGRMZ,1344,f,3*29
$PGRMM,WGS 84*06
$GPRTE,1,1,c,*37
$GPRMC,123538,A,4907.4044,N,01055.8162,E,0.0,304.8,240711,1.0,E,A*18
$GPRMB,A,,,,,,,,,,,,V,A*1C
$GPGGA,123538,4907.4044,N,01055.8162,E,1,11,1.0,409.7,M,46.5,M,,*42
$GPGSA,A,3,02,04,09,12,14,15,17,25,27,29,33,,1.6,1.0,1.3*34
$GPGSV,3,2,11,14,38,299,00,15,05,178,00,17,13,042,00,25,42,265,00*79
$GPGLL,4907.4044,N,01055.8162,E,123538,A,A*4B
$GPBOD,,T,,M,,*47
$GPVTG,304.8,T,303.8,M,0.0,N,0.0,K*49
$PGRME,7.8,M,13.2,M,15.4,M*21
$PGRMZ,1344,f,3*29
$PGRMM,WGS 84*06
$GPRTE,1,1,c,*37
$GPRMC,123540,A,4907.4044,N,01055.8161,E,0.0,304.8,240711,1.0,E,A*14
$GPRMB,A,,,,,,,,,,,,V,A*1C
$GPGGA,123540,4907.4044,N,01055.8161,E,1,11,1.0,409.9,M,46.5,M,,*40
$GPGSA,A,3,02,04,09,12,14,15,17,25,27,29,33,,1.6,1.0,1.3*34
$GPGSV,3,3,11,27,46,131,00,29,10,205,00,33,65,090,00*4A
$GPGLL,4907.4044,N,01055.8161,E,123540,A,A*47
$GPBOD,,T,,M,,*47
$GPVTG,304.8,T,303.8,M,0.0,N,0.0,K*49
$PGRME,7.9,M,13.1,M,15.3,M*24
$PGRMZ,1345,f,3*28
$PGRMM,WGS 84*06
$GPRTE,1,1,c,*37
$GPRMC,123542,A,4907.4044,N,01055.8161,E,0.0,304.8,240711,1.0,E,A*16
$GPRMB,A,,,,,,,,,,,,V,A*1C
$GPGGA,123542,4907.4044,N,01055.8161,E,1,12,1.0,410.0,M,46.5,M,,*40
$GPGSA,A,3,02,04,09,12,14,15,17,25,27,29,32,33,1.6,1.0,1.3*35
$GPGSV,3,1,12,02,17,121,00,04,21,077,00,09,60,131,00,12,79,299,00*7A
$GPGLL,4907.4044,N,01055.8161,E,123542,A,A*45
$GPBOD,,T,,M,,*47
$GPVTG,304.8,T,303.8,M,0.0,N,0.0,K*49
$PGRME,7.9,M,13.0,M,15.2,M*24
$PGRMZ,1345,f,3*28
$PGRMM,WGS 84*06
$GPRTE,1,1,c,*37
$GPRMC,123544,A,4907.4043,N,01055.8160,E,0.0,304.8,240711,1.0,E,A*16
$GPRMB,A,,,,,,,,,,,,V,A*1C
$GPGGA,123544,4907.4043,N,01055.8160,E,1,12,1.0,410.2,M,46.5,M,,*42
$GPGSA,A,3,02,04,09,12,14,15,17,25,27,29,32,33,1.6,1.0,1.3*35
$GPGSV,3,2,12,14,38,299,00,15,05,178,00,17,13,042,00,25,42,265,00*7A
$GPGLL,4907.4043,N,01055.8160,E,123544,A,A*45
$GPBOD,,T,,M,,*47
$GPVTG,304.8,T,303.8,M,0.0,N,0.0,K*49
$PGRME,7.9,M,12.8,M,15.0,M*2F
$PGRMZ,1346,f,3*2B
$PGRMM,WGS 84*06
$GPRTE,1,1,c,*37
$GPRMC,123546,A,4907.4042,N,01055.8160,E,0.0,304.8,240711,1.0,E,A*15
$GPRMB,A,,,,,,,,,,,,V,A*1C
$GPGGA,123546,4907.4042,N,01055.8160,E,1,12,1.0,410.2,M,46.5,M,,*41
$GPGSA,A,3,02,04,09,12,14,15,17,25,27,29,32,33,1.6,1.0,1.3*35
$GPGSV,3,3,12,27,46,131,00,29,10,205,00,32,01,352,00,33,65,090,00*7D
$GPGLL,4907.4042,N,01055.8160,E,123546,A,A*46
$GPBOD,,T,,M,,*47
$GPVTG,304.8,T,303.8,M,0.0,N,0.0,K*49
$PGRME,7.9,M,12.6,M,14.9,M*29
$PGRMZ,1346,f,3*2B
$PGRMM,WGS 84*06
$GPRTE,1,1,c,*37
$GPRMC,123548,A,4907.4042,N,01055.8161,E,0.0,304.8,240711,1.0,E,A*1A
$GPRMB,A,,,,,,,,,,,,V,A*1C
$GPGGA,123548,4907.4042,N,01055.8161,E,1,12,1.0,410.2,M,46.5,M,,*4E
$GPGSA,A,3,02,04,09,12,14,15,17,25,27,29,32,33,1.6,1.0,1.3*35
$GPGSV,3,1,12,02,17,121,00,04,21,077,00,09,60,131,00,12,79,299,00*7A
$GPGLL,4907.4042,N,01055.8161,E,123548,A,A*49
$GPBOD,,T,,M,,*47
$GPVTG,304.8,T,303.8,M,0.0,N,0.0,K*49
$PGRME,7.9,M,12.5,M,14.8,M*2B
$PGRMZ,1346,f,3*2B
$PGRMM,WGS 84*06
$GPRTE,1,1,c,*37
$GPRMC,123550,A,4907.4043,N,01055.8161,E,0.0,304.8,240711,1.0,E,A*12
$GPRMB,A,,,,,,,,,,,,V,A*1C
$GPGGA,123550,4907.4043,N,01055.8161,E,1,12,1.0,410.2,M,46.5,M,,*46
$GPGSA,A,3,02,04,09,12,14,15,17,25,27,29,32,33,1.6,1.0,1.3*35
$GPGSV,3,2,12,14,38,299,00,15,05,178,00,17,13,042,00,25,42,265,00*7A
$GPGLL,4907.4043,N,01055.8161,E,123550,A,A*41
$GPBOD,,T,,M,,*47
$GPVTG,304.8,T,303.8,M,0.0,N,0.0,K*49
$PGRME,7.8,M,12.4,M,14.6,M*25
$PGRMZ,1346,f,3*2B
$PGRMM,WGS 84*06
$GPRTE,1,1,c,*37
$GPRMC,123552,A,4907.4043,N,01055.8161,E,0.0,304.8,240711,1.0,E,A*10
$GPRMB,A,,,,,,,,,,,,V,A*1C
$GPGGA,123552,4907.4043,N,01055.8161,E,1,12,1.0,410.2,M,46.5,M,,*44
$GPGSA,A,3,02,04,09,12,14,15,17,25,27,29,32,33,1.6,1.0,1.3*35
$GPGSV,3,3,12,27,46,131,00,29,10,205,00,32,01,352,00,33,28,212,00*7C
$GPGLL,4907.4043,N,01055.8161,E,123552,A,A*43
$GPBOD,,T,,M,,*47
$GPVTG,304.8,T,303.8,M,0.0,N,0.0,K*49
$PGRME,7.8,M,12.3,M,14.6,M*22
$PGRMZ,1346,f,3*2B
$PGRMM,WGS 84*06
$GPRTE,1,1,c,*37
$GPRMC,123554,A,4907.4042,N,01055.8160,E,0.0,304.8,240711,1.0,E,A*16
$GPRMB,A,,,,,,,,,,,,V,A*1C
$GPGGA,123554,4907.4042,N,01055.8160,E,1,12,1.0,410.2,M,46.5,M,,*42
$GPGSA,A,3,02,04,09,12,14,15,17,25,27,29,32,33,1.6,1.0,1.3*35
$GPGSV,3,1,12,02,17,121,00,04,21,077,00,09,60,131,00,12,79,299,00*7A
$GPGLL,4907.4042,N,01055.8160,E,123554,A,A*45
$GPBOD,,T,,M,,*47
$GPVTG,304.8,T,303.8,M,0.0,N,0.0,K*49
$PGRME,7.8,M,12.3,M,14.6,M*22
$PGRMZ,1346,f,3*2B
$PGRMM,WGS 84*06
$GPRTE,1,1,c,*37
$GPRMC,123556,A,4907.4042,N,01055.8161,E,0.0,304.8,240711,1.0,E,A*15
$GPRMB,A,,,,,,,,,,,,V,A*1C
$GPGGA,123556,4907.4042,N,01055.8161,E,1,12,1.0,410.3,M,46.5,M,,*40
$GPGSA,A,3,02,04,09,12,14,15,17,25,27,29,32,33,1.6,1.0,1.3*35
$GPGSV,3,2,12,14,38,299,00,15,05,178,00,17,13,042,00,25,42,265,00*7A
$GPGLL,4907.4042,N,01055.8161,E,123556,A,A*46
$GPBOD,,T,,M,,*47
$GPVTG,304.8,T,303.8,M,0.0,N,0.0,K*49
$PGRME,7.7,M,12.1,M,14.4,M*2D
$PGRMZ,1346,f,3*2B
$PGRMM,WGS 84*06
$GPRTE,1,1,c,*37
$GPRMC,123558,A,4907.4041,N,01055.8161,E,0.0,304.8,240711,1.0,E,A*18
$GPRMB,A,,,,,,,,,,,,V,A*1C
$GPGGA,123558,4907.4041,N,01055.8161,E,1,12,0.9,410.5,M,46.5,M,,*43
$GPGSA,A,3,02,04,09,12,14,15,17,25,27,29,32,33,1.5,0.9,1.2*3F
$GPGSV,3,3,12,27,46,131,00,29,10,205,00,32,01,352,00,33,28,212,00*7C
$GPGLL,4907.4041,N,01055.8161,E,123558,A,A*4B
$GPBOD,,T,,M,,*47
$GPVTG,304.8,T,303.8,M,0.0,N,0.0,K*49
$PGRME,7.7,M,12.0,M,14.3,M*2B
$PGRMZ,1347,f,3*2A
$PGRMM,WGS 84*06
$GPRTE,1,1,c,*37
$GPRMC,123600,A,4907.4041,N,01055.8160,E,0.0,304.8,240711,1.0,E,A*17
$GPRMB,A,,,,,,,,,,,,V,A*1C
$GPGGA,123600,4907.4041,N,01055.8160,E,1,12,0.9,410.7,M,46.5,M,,*4E
$GPGSA,A,3,02,04,09,12,14,15,17,25,27,29,32,33,1.5,0.9,1.2*3F
$GPGSV,3,1,12,02,17,121,00,04,21,077,00,09,60,131,00,12,79,299,00*7A
$GPGLL,4907.4041,N,01055.8160,E,123600,A,A*44
$GPBOD,,T,,M,,*47
$GPVTG,304.8,T,303.8,M,0.0,N,0.0,K*49
$PGRME,7.6,M,11.9,M,14.1,M*22
$PGRMZ,1348,f,3*25
$PGRMM,WGS 84*06
$GPRTE,1,1,c,*37
$GPRMC,123602,A,4907.4042,N,01055.8160,E,0.0,304.8,240711,1.0,E,A*16
$GPRMB,A,,,,,,,,,,,,V,A*1C
$GPGGA,123602,4907.4042,N,01055.8160,E,1,12,0.9,411.1,M,46.5,M,,*48
$GPGSA,A,3,02,04,09,12,14,15,17,25,27,29,32,33,1.5,0.9,1.2*3F
$GPGSV,3,2,12,14,38,299,00,15,05,178,00,17,13,042,00,25,42,265,00*7A
$GPGLL,4907.4042,N,01055.8160,E,123602,A,A*45
$GPBOD,,T,,M,,*47
$GPVTG,304.8,T,303.8,M,0.0,N,0.0,K*49
$PGRME,7.6,M,11.8,M,14.0,M*22
$PGRMZ,1349,f,3*24
$PGRMM,WGS 84*06
$GPRTE,1,1,c,*37
$GPRMC,123604,A,4907.4042,N,01055.8158,E,0.0,304.8,240711,1.0,E,A*1B
$GPRMB,A,,,,,,,,,,,,V,A*1C
$GPGGA,123604,4907.4042,N,01055.8158,E,1,12,1.0,411.4,M,46.5,M,,*48
$GPGSA,A,3,02,04,09,12,14,15,17,25,27,29,32,33,1.6,1.0,1.3*35
$GPGSV,3,3,12,27,46,131,00,29,10,205,00,32,01,352,00,33,28,212,00*7C
$GPGLL,4907.4042,N,01055.8158,E,123604,A,A*48
$GPBOD,,T,,M,,*47
$GPVTG,304.8,T,303.8,M,0.0,N,0.0,K*49
$PGRME,7.4,M,11.6,M,13.8,M*21
$PGRMZ,1350,f,3*2C
$PGRMM,WGS 84*06
$GPRTE,1,1,c,*37
$GPRMC,123606,A,4907.4043,N,01055.8157,E,0.0,304.8,240711,1.0,E,A*17
$GPRMB,A,,,,,,,,,,,,V,A*1C
$GPGGA,123606,4907.4043,N,01055.8157,E,1,12,1.0,411.6,M,46.5,M,,*46
$GPGSA,A,3,02,04,09,12,14,15,17,25,27,29,32,33,1.6,1.0,1.3*35
$GPGSV,3,1,12,02,17,121,00,04,21,077,00,09,60,131,00,12,79,301,00*7A
$GPGLL,4907.4043,N,01055.8157,E,123606,A,A*44
$GPBOD,,T,,M,,*47
$GPVTG,304.8,T,303.8,M,0.0,N,0.0,K*49
$PGRME,7.4,M,11.6,M,13.7,M*2E
$PGRMZ,1350,f,3*2C
$PGRMM,WGS 84*06
$GPRTE,1,1,c,*37
$GPRMC,123608,A,4907.4044,N,01055.8156,E,0.0,304.8,240711,1.0,E,A*1F
$GPRMB,A,,,,,,,,,,,,V,A*1C
$GPGGA,123608,4907.4044,N,01055.8156,E,1,12,1.0,411.7,M,46.5,M,,*4F
$GPGSA,A,3,02,04,09,12,14,15,17,25,27,29,32,33,1.6,1.0,1.3*35
$GPGSV,3,2,12,14,38,299,00,15,05,178,00,17,13,042,00,25,42,265,00*7A
$GPGLL,4907.4044,N,01055.8156,E,123608,A,A*4C
$GPBOD,,T,,M,,*47
$GPVTG,304.8,T,303.8,M,0.0,N,0.0,K*49
$PGRME,7.4,M,11.5,M,13.6,M*2C
$PGRMZ,1351,f,3*2D
$PGRMM,WGS 84*06
$GPRTE,1,1,c,*37
$GPRMC,123610,A,4907.4044,N,01055.8155,E,0.0,304.8,240711,1.0,E,A*15
$GPRMB,A,,,,,,,,,,,,V,A*1C
$GPGGA,123610,4907.4044,N,01055.8155,E,1,12,1.0,411.8,M,46.5,M,,*4A
$GPGSA,A,3,02,04,09,12,14,15,17,25,27,29,32,33,1.6,1.0,1.3*35
$GPGSV,3,3,12,27,46,131,00,29,10,205,00,32,01,352,00,33,28,212,00*7C
$GPGLL,4907.4044,N,01055.8155,E,123610,A,A*46
$GPBOD,,T,,M,,*47
$GPVTG,304.8,T,303.8,M,0.0,N,0.0,K*49
$PGRME,7.3,M,11.4,M,13.6,M*2A
$PGRMZ,1351,f,3*2D
$PGRMM,WGS 84*06
$GPRTE,1,1,c,*37
$GPRMC,123612,A,4907.4044,N,01055.8155,E,0.0,304.8,240711,1.0,E,A*17
$GPRMB,A,,,,,,,,,,,,V,A*1C
$GPGGA,123612,4907.4044,N,01055.8155,E,1,12,0.9,412.0,M,46.5,M,,*4B
$GPGSA,A,3,02,04,09,12,14,15,17,25,27,29,32,33,1.5,0.9,1.2*3F
$GPGSV,3,1,12,02,17,121,00,04,21,077,00,09,60,131,00,12,79,301,00*7A
$GPGLL,4907.4044,N,01055.8155,E,123612,A,A*44
$GPBOD,,T,,M,,*47
$GPVTG,304.8,T,303.8,M,0.0,N,0.0,K*49
$PGRME,7.3,M,11.3,M,13.5,M*2E
$PGRMZ,1352,f,3*2E
$PGRMM,WGS 84*06
$GPRTE,1,1,c,*37
$GPRMC,123614,A,4907.4044,N,01055.8155,E,0.0,304.8,240711,1.0,E,A*11
$GPRMB,A,,,,,,,,,,,,V,A*1C
$GPGGA,123614,4907.4044,N,01055.8155,E,1,12,1.0,412.0,M,46.5,M,,*45
$GPGSA,A,3,02,04,09,12,14,15,17,25,27,29,32,33,1.6,1.0,1.3*35
$GPGSV,3,2,12,14,38,299,00,15,05,178,00,17,13,042,00,25,42,265,00*7A
$GPGLL,4907.4044,N,01055.8155,E,123614,A,A*42
$GPBOD,,T,,M,,*47
$GPVTG,304.8,T,303.8,M,0.0,N,0.0,K*49
$PGRME,7.3,M,11.3,M,13.5,M*2E
$PGRMZ,1352,f,3*2E
$PGRMM,WGS 84*06
$GPRTE,1,1,c,*37
$GPRMC,123616,A,4907.4045,N,01055.8154,E,0.0,304.8,240711,1.0,E,A*13
$GPRMB,A,,,,,,,,,,,,V,A*1C
$GPGGA,123616,4907.4045,N,01055.8154,E,1,12,1.0,412.1,M,46.5,M,,*46
$GPGSA,A,3,02,04,09,12,14,15,17,25,27,29,32,33,1.6,1.0,1.3*35
$GPGSV,3,3,12,27,46,131,00,29,10,205,00,32,01,352,00,33,28,212,00*7C
$GPGLL,4907.4045,N,01055.8154,E,123616,A,A*40
$GPBOD,,T,,M,,*47
$GPVTG,304.8,T,303.8,M,0.0,N,0.0,K*49
$PGRME,7.3,M,11.3,M,13.5,M*2E
$PGRMZ,1352,f,3*2E
$PGRMM,WGS 84*06
$GPRTE,1,1,c,*37
$GPRMC,123618,A,4907.4045,N,01055.8155,E,0.0,304.8,240711,1.0,E,A*1C
$GPRMB,A,,,,,,,,,,,,V,A*1C
$GPGGA,123618,4907.4045,N,01055.8155,E,1,12,1.0,412.1,M,46.5,M,,*49
$GPGSA,A,3,02,04,09,12,14,15,17,25,27,29,32,33,1.6,1.0,1.3*35
$GPGSV,3,1,12,02,17,121,00,04,21,077,00,09,60,131,00,12,79,301,00*7A
$GPGLL,4907.4045,N,01055.8155,E,123618,A,A*4F
$GPBOD,,T,,M,,*47
$GPVTG,304.8,T,303.8,M,0.0,N,0.0,K*49
$PGRME,7.3,M,11.3,M,13.4,M*2F
$PGRMZ,1352,f,3*2E
$PGRMM,WGS 84*06
$GPRTE,1,1,c,*37
$GPRMC,123620,A,4907.4045,N,01055.8156,E,0.0,304.8,240711,1.0,E,A*14
$GPRMB,A,,,,,,,,,,,,V,A*1C
$GPGGA,123620,4907.4045,N,01055.8156,E,1,12,1.0,412.0,M,46.5,M,,*40
$GPGSA,A,3,02,04,09,12,14,15,17,25,27,29,32,33,1.6,1.0,1.3*35
$GPGSV,3,2,12,14,38,299,00,15,05,178,00,17,13,042,00,25,42,265,00*7A
$GPGLL,4907.4045,N,01055.8156,E,123620,A,A*47
$GPBOD,,T,,M,,*47
$GPVTG,304.8,T,303.8,M,0.0,N,0.0,K*49
$PGRME,7.3,M,11.2,M,13.4,M*2E
$PGRMZ,1352,f,3*2E
$PGRMM,WGS 84*06
$GPRTE,1,1,c,*37
$GPRMC,123622,A,4907.4045,N,01055.8155,E,0.0,304.8,240711,1.0,E,A*15
$GPRMB,A,,,,,,,,,,,,V,A*1C
$GPGGA,123622,4907.4045,N,01055.8155,E,1,12,1.0,411.9,M,46.5,M,,*4B
$GPGSA,A,3,02,04,09,12,14,15,17,25,27,29,32,33,1.6,1.0,1.3*35
$GPGSV,3,3,12,27,46,131,00,29,10,205,00,32,01,352,00,33,28,212,00*7C
$GPGLL,4907.4045,N,01055.8155,E,123622,A,A*46
$GPBOD,,T,,M,,*47
$GPVTG,304.8,T,303.8,M,0.0,N,0.0,K*49
$PGRME,7.3,M,11.2,M,13.4,M*2E
$PGRMZ,1351,f,3*2D
$PGRMM,WGS 84*06
$GPRTE,1,1,c,*37
$GPRMC,123624,A,4907.4046,N,01055.8154,E,0.0,304.8,240711,1.0,E,A*11
$GPRMB,A,,,,,,,,,,,,V,A*1C
$GPGGA,123624,4907.4046,N,01055.8154,E,1,12,1.0,411.8,M,46.5,M,,*4E
$GPGSA,A,3,02,04,09,12,14,15,17,25,27,29,32,33,1.6,1.0,1.3*35
$GPGSV,3,1,12,02,17,121,00,04,21,077,00,09,60,131,00,12,79,301,00*7A
$GPGLL,4907.4046,N,01055.8154,E,123624,A,A*42
$GPBOD,,T,,M,,*47
$GPVTG,304.8,T,303.8,M,0.0,N,0.0,K*49
$PGRME,7.3,M,11.1,M,13.3,M*2A
$PGRMZ,1351,f,3*2D
$PGRMM,WGS 84*06
$GPRTE,1,1,c,*37
$GPRMC,123626,A,4907.4045,N,01055.8154,E,0.0,304.8,240711,1.0,E,A*10
$GPRMB,A,,,,,,,,,,,,V,A*1C
$GPGGA,123626,4907.4045,N,01055.8154,E,1,12,1.0,411.8,M,46.5,M,,*4F
$GPGSA,A,3,02,04,09,12,14,15,17,25,27,29,32,33,1.6,1.0,1.3*35
$GPGSV,3,2,12,14,38,299,00,15,05,178,00,17,13,042,00,25,42,265,00*7A
$GPGLL,4907.4045,N,01055.8154,E,123626,A,A*43
$GPBOD,,T,,M,,*47
$GPVTG,304.8,T,303.8,M,0.0,N,0.0,K*49
$PGRME,7.3,M,11.1,M,13.3,M*2A
$PGRMZ,1351,f,3*2D
$PGRMM,WGS 84*06
$GPRTE,1,1,c,*37
$GPRMC,123628,A,4907.4046,N,01055.8154,E,0.0,304.8,240711,1.0,E,A*1D
$GPRMB,A,,,,,,,,,,,,V,A*1C
$GPGGA,123628,4907.4046,N,01055.8154,E,1,12,1.0,411.7,M,46.5,M,,*4D
$GPGSA,A,3,02,04,09,12,14,15,17,25,27,29,32,33,1.6,1.0,1.3*35
$GPGSV,3,3,12,27,46,131,00,29,10,205,00,32,01,352,00,33,28,212,00*7C
$GPGLL,4907.4046,N,01055.8154,E,123628,A,A*4E
$GPBOD,,T,,M,,*47
$GPVTG,304.8,T,303.8,M,0.0,N,0.0,K*49
$PGRME,7.3,M,11.1,M,13.3,M*2A
$PGRMZ,1351,f,3*2D
$PGRMM,WGS 84*06
$GPRTE,1,1,c,*37
$GPRMC,123630,A,4907.4046,N,01055.8155,E,0.0,304.8,240711,1.0,E,A*15
$GPRMB,A,,,,,,,,,,,,V,A*1C
$GPGGA,123630,4907.4046,N,01055.8155,E,1,12,1.0,411.5,M,46.5,M,,*47
$GPGSA,A,3,02,04,09,12,14,15,17,25,27,29,32,33,1.6,1.0,1.3*35
$GPGSV,3,1,12,02,17,121,00,04,21,077,00,09,60,131,00,12,79,301,00*7A
$GPGLL,4907.4046,N,01055.8155,E,123630,A,A*46
$GPBOD,,T,,M,,*47
$GPVTG,304.8,T,303.8,M,0.0,N,0.0,K*49
$PGRME,7.3,M,11.2,M,13.4,M*2E
$PGRMZ,1350,f,3*2C
$PGRMM,WGS 84*06
$GPRTE,1,1,c,*37
$GPRMC,123632,A,4907.4047,N,01055.8157,E,0.0,304.8,240711,1.0,E,A*14
$GPRMB,A,,,,,,,,,,,,V,A*1C
$GPGGA,123632,4907.4047,N,01055.8157,E,1,12,1.0,411.3,M,46.5,M,,*40
$GPGSA,A,3,02,04,09,12,14,15,17,25,27,29,32,33,1.6,1.0,1.3*35
$GPGSV,3,2,12,14,38,299,00,15,05,178,00,17,13,042,00,25,42,266,00*79
$GPGLL,4907.4047,N,01055.8157,E,123632,A,A*47
$GPBOD,,T,,M,,*47
$GPVTG,304.8,T,303.8,M,0.0,N,0.0,K*49
$PGRME,7.4,M,11.2,M,13.4,M*29
$PGRMZ,1349,f,3*24
$PGRMM,WGS 84*06
$GPRTE,1,1,c,*37
$GPRMC,123634,A,4907.4046,N,01055.8158,E,0.0,304.8,240711,1.0,E,A*1C
$GPRMB,A,,,,,,,,,,,,V,A*1C
$GPGGA,123634,4907.4046,N,01055.8158,E,1,12,1.7,411.2,M,46.5,M,,*4E
$GPGSA,A,3,02,04,09,12,14,15,17,25,27,29,32,33,2.6,1.7,1.9*3B
$GPGSV,3,3,12,27,46,132,00,29,10,205,00,32,01,352,00,33,28,212,00*7F
$GPGLL,4907.4046,N,01055.8158,E,123634,A,A*4F
$GPBOD,,T,,M,,*47
$GPVTG,304.8,T,303.8,M,0.0,N,0.0,K*49
$PGRME,6.2,M,11.2,M,12.8,M*23
$PGRMZ,1349,f,3*24
$PGRMM,WGS 84*06
$GPRTE,1,1,c,*37
$GPRMC,123636,A,4907.4046,N,01055.8157,E,0.0,304.8,240711,1.0,E,A*11
$GPRMB,A,,,,,,,,,,,,V,A*1C
$GPGGA,123636,4907.4046,N,01055.8157,E,1,12,1.7,411.2,M,46.5,M,,*43
$GPGSA,A,3,02,04,09,12,14,15,17,25,27,29,32,33,2.6,1.7,1.9*3B
$GPGSV,3,1,12,02,17,121,00,04,21,077,00,09,60,131,00,12,79,301,00*7A
$GPGLL,4907.4046,N,01055.8157,E,123636,A,A*42
$GPBOD,,T,,M,,*47
$GPVTG,304.8,T,303.8,M,0.0,N,0.0,K*49
$PGRME,6.2,M,11.2,M,12.8,M*23
$PGRMZ,1349,f,3*24
$PGRMM,WGS 84*06
$GPRTE,1,1,c,*37
$GPRMC,123638,A,4907.4047,N,01055.8158,E,0.0,304.8,240711,1.0,E,A*11
$GPRMB,A,,,,,,,,,,,,V,A*1C
$GPGGA,123638,4907.4047,N,01055.8158,E,1,12,1.0,411.0,M,46.5,M,,*46
$GPGSA,A,3,02,04,09,12,14,15,17,25,27,29,32,33,1.6,1.0,1.3*35
$GPGSV,3,2,12,14,38,299,00,15,05,178,00,17,13,042,00,25,42,266,00*79
$GPGLL,4907.4047,N,01055.8158,E,123638,A,A*42
$GPBOD,,T,,M,,*47
$GPVTG,304.8,T,303.8,M,0.0,N,0.0,K*49
$PGRME,6.2,M,11.2,M,12.9,M*22
$PGRMZ,1348,f,3*25
$PGRMM,WGS 84*06
$GPRTE,1,1,c,*37
$GPRMC,123640,A,4907.4047,N,01055.8159,E,0.0,304.8,240711,1.0,E,A*1F
$GPRMB,A,,,,,,,,,,,,V,A*1C
$GPGGA,123640,4907.4047,N,01055.8159,E,1,12,1.0,410.8,M,46.5,M,,*41
$GPGSA,A,3,02,04,09,12,14,15,17,25,27,29,32,33,1.6,1.0,1.3*35
$GPGSV,3,3,12,27,46,132,00,29,11,205,00,32,01,352,00,33,28,212,00*7E
$GPGLL,4907.4047,N,01055.8159,E,123640,A,A*4C
$GPBOD,,T,,M,,*47
$GPVTG,304.8,T,303.8,M,0.0,N,0.0,K*49
$PGRME,6.3,M,11.3,M,12.9,M*22
$PGRMZ,1348,f,3*25
$PGRMM,WGS 84*06
$GPRTE,1,1,c,*37
$GPRMC,123642,A,4907.4047,N,01055.8159,E,0.0,304.8,240711,1.0,E,A*1D
$GPRMB,A,,,,,,,,,,,,V,A*1C
$GPGGA,123642,4907.4047,N,01055.8159,E,1,12,1.0,410.6,M,46.5,M,,*4D
$GPGSA,A,3,02,04,09,12,14,15,17,25,27,29,32,33,1.6,1.0,1.3*35
$GPGSV,3,1,12,02,17,121,00,04,21,077,00,09,60,131,00,12,79,301,00*7A
$GPGLL,4907.4047,N,01055.8159,E,123642,A,A*4E
$GPBOD,,T,,M,,*47
$GPVTG,304.8,T,303.8,M,0.0,N,0.0,K*49
$PGRME,6.3,M,11.3,M,12.9,M*22
$PGRMZ,1347,f,3*2A
$PGRMM,WGS 84*06
$GPRTE,1,1,c,*37
$GPRMC,123644,A,4907.4047,N,01055.8161,E,0.0,304.8,240711,1.0,E,A*10
$GPRMB,A,,,,,,,,,,,,V,A*1C
$GPGGA,123644,4907.4047,N,01055.8161,E,1,12,1.0,410.5,M,46.5,M,,*43
$GPGSA,A,3,02,04,09,12,14,15,17,25,27,29,32,33,1.6,1.0,1.3*35
$GPGSV,3,2,12,14,38,299,00,15,04,178,00,17,13,042,00,25,42,266,00*78
$GPGLL,4907.4047,N,01055.8161,E,123644,A,A*43
$GPBOD,,T,,M,,*47
$GPVTG,304.8,T,303.8,M,0.0,N,0.0,K*49
$PGRME,6.3,M,11.3,M,12.9,M*22
$PGRMZ,1347,f,3*2A
$PGRMM,WGS 84*06
$GPRTE,1,1,c,*37
$GPRMC,123646,A,4907.4047,N,01055.8162,E,0.0,304.8,240711,1.0,E,A*11
$GPRMB,A,,,,,,,,,,,,V,A*1C
$GPGGA,123646,4907.4047,N,01055.8162,E,1,12,1.0,410.4,M,46.5,M,,*43
$GPGSA,A,3,02,04,09,12,14,15,17,25,27,29,32,33,1.6,1.0,1.3*35
$GPGSV,3,3,12,27,46,132,00,29,11,205,00,32,01,352,00,33,28,212,00*7E
$GPGLL,4907.4047,N,01055.8162,E,123646,A,A*42
$GPBOD,,T,,M,,*47
$GPVTG,304.8,T,303.8,M,0.0,N,0.0,K*49
$PGRME,6.3,M,11.3,M,12.9,M*22
$PGRMZ,1346,f,3*2B
$PGRMM,WGS 84*06
$GPRTE,1,1,c,*37
$GPRMC,123648,A,4907.4047,N,01055.8163,E,0.0,304.8,240711,1.0,E,A*1E
$GPRMB,A,,,,,,,,,,,,V,A*1C
$GPGGA,123648,4907.4047,N,01055.8163,E,1,12,1.0,410.3,M,46.5,M,,*4B
$GPGSA,A,3,02,04,09,12,14,15,17,25,27,29,32,33,1.6,1.0,1.3*35
$GPGSV,3,1,12,02,17,121,00,04,21,077,00,09,60,131,00,12,79,301,00*7A
$GPGLL,4907.4047,N,01055.8163,E,123648,A,A*4D
$GPBOD,,T,,M,,*47
$GPVTG,304.8,T,303.8,M,0.0,N,0.0,K*49
$PGRME,6.3,M,11.3,M,13.0,M*2A
$PGRMZ,1346,f,3*2B
$PGRMM,WGS 84*06
$GPRTE,1,1,c,*37
$GPRMC,123650,A,4907.4048,N,01055.8164,E,0.0,304.8,240711,1.0,E,A*1F
$GPRMB,A,,,,,,,,,,,,V,A*1C
$GPGGA,123650,4907.4048,N,01055.8164,E,1,12,1.0,410.1,M,46.5,M,,*48
$GPGSA,A,3,02,04,09,12,14,15,17,25,27,29,32,33,1.6,1.0,1.3*35
$GPGSV,3,2,12,14,38,299,00,15,04,178,00,17,13,042,00,25,42,266,00*78
$GPGLL,4907.4048,N,01055.8164,E,123650,A,A*4C
$GPBOD,,T,,M,,*47
$GPVTG,304.8,T,303.8,M,0.0,N,0.0,K*49
$PGRME,6.3,M,11.4,M,13.0,M*2D
$PGRMZ,1346,f,3*2B
$PGRMM,WGS 84*06
$GPRTE,1,1,c,*37
$GPRMC,123652,A,4907.4050,N,01055.8165,E,0.0,304.8,240711,1.0,E,A*15
$GPRMB,A,,,,,,,,,,,,V,A*1C
$GPGGA,123652,4907.4050,N,01055.8165,E,1,12,1.0,410.0,M,46.5,M,,*43
$GPGSA,A,3,02,04,09,12,14,15,17,25,27,29,32,33,1.6,1.0,1.3*35
$GPGSV,3,3,12,27,46,132,00,29,11,205,00,32,01,352,00,33,28,212,00*7E
$GPGLL,4907.4050,N,01055.8165,E,123652,A,A*46
$GPBOD,,T,,M,,*47
$GPVTG,304.8,T,303.8,M,0.0,N,0.0,K*49
$PGRME,6.3,M,11.4,M,13.0,M*2D
$PGRMZ,1345,f,3*28
$PGRMM,WGS 84*06
$GPRTE,1,1,c,*37
$GPRMC,123654,A,4907.4052,N,01055.8166,E,0.0,304.8,240711,1.0,E,A*12
$GPRMB,A,,,,,,,,,,,,V,A*1C
$GPGGA,123654,4907.4052,N,01055.8166,E,1,12,1.0,409.9,M,46.5,M,,*45
$GPGSA,A,3,02,04,09,12,14,15,17,25,27,29,32,33,1.6,1.0,1.3*35
$GPGSV,3,1,12,02,17,121,00,04,22,076,00,09,60,131,00,12,79,301,00*78
$GPGLL,4907.4052,N,01055.8166,E,123654,A,A*41
$GPBOD,,T,,M,,*47
$GPVTG,304.8,T,303.8,M,0.0,N,0.0,K*49
$PGRME,6.4,M,11.4,M,13.0,M*2A
$PGRMZ,1345,f,3*28
$PGRMM,WGS 84*06
$GPRTE,1,1,c,*37
$GPRMC,123656,A,4907.4054,N,01055.8166,E,0.0,304.8,240711,1.0,E,A*16
$GPRMB,A,,,,,,,,,,,,V,A*1C
$GPGGA,123656,4907.4054,N,01055.8166,E,1,12,1.0,409.9,M,46.5,M,,*41
$GPGSA,A,3,02,04,09,12,14,15,17,25,27,29,32,33,1.6,1.0,1.3*35
$GPGSV,3,2,12,14,38,299,00,15,04,178,00,17,13,042,00,25,42,266,00*78
$GPGLL,4907.4054,N,01055.8166,E,123656,A,A*45
$GPBOD,,T,,M,,*47
$GPVTG,304.8,T,303.8,M,0.0,N,0.0,K*49
$PGRME,6.4,M,11.4,M,13.1,M*2B
$PGRMZ,1345,f,3*28
$PGRMM,WGS 84*06
$GPRTE,1,1,c,*37
$GPRMC,123658,A,4907.4054,N,01055.8166,E,0.0,304.8,240711,1.0,E,A*18
$GPRMB,A,,,,,,,,,,,,V,A*1C
$GPGGA,123658,4907.4054,N,01055.8166,E,1,12,1.0,409.9,M,46.5,M,,*4F
$GPGSA,A,3,02,04,09,12,14,15,17,25,27,29,32,33,1.6,1.0,1.3*35
$GPGSV,3,3,12,27,46,132,00,29,11,205,00,32,01,352,00,33,28,212,00*7E
$GPGLL,4907.4054,N,01055.8166,E,123658,A,A*4B
$GPBOD,,T,,M,,*47
$GPVTG,304.8,T,303.8,M,0.0,N,0.0,K*49
$PGRME,6.4,M,11.5,M,13.2,M*29
$PGRMZ,1345,f,3*28
$PGRMM,WGS 84*06
$GPRTE,1,1,c,*37
$GPRMC,123700,A,4907.4055,N,01055.8166,E,0.0,304.8,240711,1.0,E,A*15
$GPRMB,A,,,,,,,,,,,,V,A*1C
$GPGGA,123700,4907.4055,N,01055.8166,E,1,12,1.0,409.8,M,46.5,M,,*43
$GPGSA,A,3,02,04,09,12,14,15,17,25,27,29,32,33,1.6,1.0,1.3*35
$GPGSV,3,1,12,02,17,121,00,04,22,076,00,09,60,131,00,12,79,301,00*78
$GPGLL,4907.4055,N,01055.8166,E,123700,A,A*46
$GPBOD,,T,,M,,*47
$GPVTG,304.8,T,303.8,M,0.0,N,0.0,K*49
$PGRME,6.5,M,11.5,M,13.2,M*28
$PGRMZ,1344,f,3*29
$PGRMM,WGS 84*06
$GPRTE,1,1,c,*37
$GPRMC,123702,A,4907.4056,N,01055.8166,E,0.0,304.8,240711,1.0,E,A*14
$GPRMB,A,,,,,,,,,,,,V,A*1C
$GPGGA,123702,4907.4056,N,01055.8166,E,1,12,1.0,409.7,M,46.5,M,,*4D
$GPGSA,A,3,02,04,09,12,14,15,17,25,27,29,32,33,1.6,1.0,1.3*35
$GPGSV,3,2,12,14,38,299,00,15,04,178,00,17,13,042,00,25,42,266,00*78
$INDPT,5.8,0.0*4A
$INRMC,,V,,,,,,,,,*21
$GPGLL,4907.4056,N,01055.8166,E,123702,A,A*47
$GPBOD,,T,,M,,*47
$GPVTG,304.8,T,303.8,M,0.0,N,0.0,K*49
$PGRME,6.5,M,11.6,M,13.3,M*2A
$PGRMZ,1344,f,3*29
$PGRMM,WGS 84*06
$GPRTE,1,1,c,*37
$INDPT,5.8,0.0*4A
$INGLL,,,,,,V*16
$INVTG,,T,,M,,N,,K*5E
$INMTW,17.8,C*1A
$GPRMC,123704,A,4907.4057,N,01055.8167,E,0.0,304.8,240711,1.0,E,A*12
$GPRMB,A,,,,,,,,,,,,V,A*1C
$GPGGA,123704,4907.4057,N,01055.8167,E,1,12,0.9,409.6,M,46.5,M,,*42
$GPGSA,A,3,02,04,09,12,14,15,17,25,27,29,32,33,1.6,0.9,1.3*3D
$GPGSV,3,3,12,27,46,132,00,29,11,205,00,32,01,352,00,33,28,212,00*7E
$INDPT,5.8,0.0*4A
$INRMC,,V,,,,,,,,,*21
$GPGLL,4907.4057,N,01055.8167,E,123704,A,A*41
$GPBOD,,T,,M,,*47
$GPVTG,304.8,T,303.8,M,0.0,N,0.0,K*49
$PGRME,6.5,M,11.6,M,13.3,M*2A
$PGRMZ,1344,f,3*29
$PGRMM,WGS 84*06
$GPRTE,1,1,c,*37
$INDPT,5.8,0.0*4A
$INGGA,,,,,,0,,,,,,,,*76
$INZDA,,,,,,*58
$INMTW,17.9,C*1B
$GPRMC,123706,A,4907.4058,N,01055.8168,E,0.0,304.8,240711,1.0,E,A*10
$GPRMB,A,,,,,,,,,,,,V,A*1C
$GPGGA,123706,4907.4058,N,01055.8168,E,1,12,0.9,409.4,M,46.5,M,,*42
$GPGSA,A,3,02,04,09,12,14,15,17,25,27,29,32,33,1.6,0.9,1.3*3D
$GPGSV,3,1,12,02,17,121,00,04,22,076,00,09,59,132,00,12,79,301,00*71
$INDPT,5.8,0.0*4A
$GPGLL,4907.4058,N,01055.8168,E,123706,A,A*43
$INRMC,,V,,,,,,,,,*21
$GPBOD,,T,,M,,*47
$GPVTG,304.8,T,303.8,M,0.0,N,0.0,K*49
$PGRME,6.6,M,11.6,M,13.3,M*29
$PGRMZ,1343,f,3*2E
$PGRMM,WGS 84*06
$GPRTE,1,1,c,*37
$INDPT,5.8,0.0*4A
$INGLL,,,,,,V*16
$INVTG,,T,,M,,N,,K*5E
$INMTW,17.9,C*1B
$GPRMC,123708,A,4907.4057,N,01055.8169,E,0.0,304.8,240711,1.0,E,A*10
$GPRMB,A,,,,,,,,,,,,V,A*1C
$GPGGA,123708,4907.4057,N,01055.8169,E,1,12,0.9,409.4,M,46.5,M,,*42
$GPGSA,A,3,02,04,09,12,14,15,17,25,27,29,32,33,1.6,0.9,1.3*3D
$GPGSV,3,2,12,14,38,299,00,15,04,178,00,17,13,042,00,25,42,266,00*78
$INDPT,5.8,0.0*4A
$INRMC,,V,,,,,,,,,*21
$GPGLL,4907.4057,N,01055.8169,E,123708,A,A*43
$GPBOD,,T,,M,,*47
$GPVTG,304.8,T,303.8,M,0.0,N,0.0,K*49
$PGRME,6.6,M,11.6,M,13.3,M*29
$PGRMZ,1343,f,3*2E
$PGRMM,WGS 84*06
$GPRTE,1,1,c,*37
$INDPT,5.8,0.0*4A
$INGGA,,,,,,0,,,,,,,,*76
$INZDA,,,,,,*58
$INMTW,17.7,C*15
$GPRMC,123710,A,4907.4056,N,01055.8168,E,0.0,304.8,240711,1.0,E,A*19
$GPRMB,A,,,,,,,,,,,,V,A*1C
$GPGGA,123710,4907.4056,N,01055.8168,E,1,12,0.9,409.3,M,46.5,M,,*4C
$GPGSA,A,3,02,04,09,12,14,15,17,25,27,29,32,33,1.6,0.9,1.3*3D
$GPGSV,3,3,12,27,46,132,00,29,11,205,00,32,01,352,00,33,28,212,00*7E
$INDPT,5.8,0.0*4A
$GPGLL,4907.4056,N,01055.8168,E,123710,A,A*4A
$INRMC,,V,,,,,,,,,*21
$GPBOD,,T,,M,,*47
$GPVTG,304.8,T,303.8,M,0.0,N,0.0,K*49
$PGRME,6.4,M,11.6,M,13.3,M*2B
$PGRMZ,1343,f,3*2E
$PGRMM,WGS 84*06
$GPRTE,1,1,c,*37
$INDPT,5.8,0.0*4A
$INGLL,,,,,,V*16
$INVTG,,T,,M,,N,,K*5E
$INMTW,17.8,C*1A
$GPRMC,123712,A,4907.4055,N,01055.8167,E,0.0,304.8,240711,1.0,E,A*17
$GPRMB,A,,,,,,,,,,,,V,A*1C
$GPGGA,123712,4907.4055,N,01055.8167,E,1,12,0.9,409.3,M,46.5,M,,*42
$GPGSA,A,3,02,04,09,12,14,15,17,25,27,29,32,33,1.6,0.9,1.3*3D
$GPGSV,3,1,12,02,17,121,00,04,22,076,00,09,59,132,00,12,79,303,00*73
$INDPT,5.8,0.0*4A
$INRMC,,V,,,,,,,,,*21
$GPGLL,4907.4055,N,01055.8167,E,123712,A,A*44
$GPBOD,,T,,M,,*47
$GPVTG,304.8,T,303.8,M,0.0,N,0.0,K*49
$PGRME,6.4,M,11.6,M,13.3,M*2B
$PGRMZ,1343,f,3*2E
$PGRMM,WGS 84*06
$GPRTE,1,1,c,*37
$INDPT,5.8,0.0*4A
$INGGA,,,,,,0,,,,,,,,*76
$INZDA,,,,,,*58
$INMTW,17.9,C*1B
$GPRMC,123714,A,4907.4053,N,01055.8166,E,0.0,304.8,240711,1.0,E,A*16
$GPRMB,A,,,,,,,,,,,,V,A*1C
$GPGGA,123714,4907.4053,N,01055.8166,E,1,12,0.9,409.4,M,46.5,M,,*44
$GPGSA,A,3,02,04,09,12,14,15,17,25,27,29,32,33,1.6,0.9,1.3*3D
$INDPT,5.9,0.0*4B
$GPGSV,3,2,12,14,38,298,00,15,04,178,00,17,13,042,00,25,42,266,00*79
$INRMC,,V,,,,,,,,,*21
$GPGLL,4907.4053,N,01055.8166,E,123714,A,A*45
$GPBOD,,T,,M,,*47
$PGRME,6.5,M,11.6,M,13.3,M*2A
$PGRMZ,1343,f,3*2E
$PGRMM,WGS 84*06
$GPRTE,1,1,c,*37
$INDPT,5.9,0.0*4B
$INGLL,,,,,,V*16
$INVTG,,T,,M,,N,,K*5E
$INMTW,17.9,C*1B
$GPRMC,123716,A,4907.4053,N,01055.8165,E,0.0,304.8,240711,1.0,E,A*17
$GPRMB,A,,,,,,,,,,,,V,A*1C
$GPGGA,123716,4907.4053,N,01055.8165,E,1,12,0.9,409.3,M,46.5,M,,*42
$GPGSA,A,3,02,04,09,12,14,15,17,25,27,29,32,33,1.6,0.9,1.3*3D
$GPGSV,3,3,12,27,46,132,00,29,11,205,00,32,01,352,00,33,28,212,00*7E
$INDPT,5.9,0.0*4B
$GPGLL,4907.4053,N,01055.8165,E,123716,A,A*44
$INRMC,,V,,,,,,,,,*21
$GPBOD,,T,,M,,*47
$GPVTG,304.8,T,303.8,M,0.0,N,0.0,K*49
$PGRME,6.5,M,11.6,M,13.3,M*2A
$PGRMZ,1343,f,3*2E
$PGRMM,WGS 84*06
$GPRTE,1,1,c,*37
$INDPT,5.9,0.0*4B
$INGGA,,,,,,0,,,,,,,,*76
$INZDA,,,,,,*58
$INMTW,17.8,C*1A
$GPRMC,123718,A,4907.4053,N,01055.8164,E,0.0,304.8,240711,1.0,E,A*18
$GPRMB,A,,,,,,,,,,,,V,A*1C
$GPGGA,123718,4907.4053,N,01055.8164,E,1,12,0.9,409.2,M,46.5,M,,*4C
$GPGSA,A,3,02,04,09,12,14,15,17,25,27,29,32,33,1.6,0.9,1.3*3D
$INDPT,5.9,0.0*4B
$INRMC,,V,,,,,,,,,*21
$GPGSV,3,1,12,02,17,121,00,04,22,076,00,09,59,132,00,12,79,303,00*73
$GPGLL,4907.4053,N,01055.8164,E,123718,A,A*4B
$GPBOD,,T,,M,,*47
$GPVTG,304.8,T,303.8,M,0.0,N,0.0,K*49
$PGRME,6.5,M,11.6,M,13.3,M*2A
$PGRMZ,1342,f,3*2F
$PGRMM,WGS 84*06
$GPRTE,1,1,c,*37
$INDPT,5.9,0.0*4B
$INGLL,,,,,,V*16
$INVTG,,T,,M,,N,,K*5E
$INMTW,17.8,C*1A
$GPRMC,123720,A,4907.4053,N,01055.8165,E,0.0,304.8,240711,1.0,E,A*12
$GPRMB,A,,,,,,,,,,,,V,A*1C
$GPGGA,123720,4907.4053,N,01055.8165,E,1,12,0.9,409.1,M,46.5,M,,*45
$GPGSA,A,3,02,04,09,12,14,15,17,25,27,29,32,33,1.6,0.9,1.3*3D
$INDPT,5.8,0.0*4A
$GPGSV,3,2,12,14,38,298,00,15,04,178,00,17,12,042,00,25,42,266,00*78
$INRMC,,V,,,,,,,,,*21
$GPGLL,4907.4053,N,01055.8165,E,123720,A,A*41
$GPBOD,,T,,M,,*47
$GPVTG,304.8,T,303.8,M,0.0,N,0.0,K*49
$PGRME,6.6,M,11.6,M,13.3,M*29
$PGRMZ,1342,f,3*2F
$PGRMM,WGS 84*06
$GPRTE,1,1,c,*37
$INDPT,5.8,0.0*4A
$INGGA,,,,,,0,,,,,,,,*76
$INZDA,,,,,,*58
$INMTW,17.9,C*1B
$GPRMC,123722,A,4907.4054,N,01055.8167,E,0.0,304.8,240711,1.0,E,A*15
$GPRMB,A,,,,,,,,,,,,V,A*1C
$GPGGA,123722,4907.4054,N,01055.8167,E,1,12,0.9,409.1,M,46.5,M,,*42
$GPGSA,A,3,02,04,09,12,14,15,17,25,27,29,32,33,1.6,0.9,1.3*3D
$GPGSV,3,3,12,27,46,132,00,29,11,205,00,32,01,352,00,33,28,212,00*7E
$INDPT,5.8,0.0*4A
$INRMC,,V,,,,,,,,,*21
$GPGLL,4907.4054,N,01055.8167,E,123722,A,A*46
$GPBOD,,T,,M,,*47
$GPVTG,304.8,T,303.8,M,0.0,N,0.0,K*49
$PGRME,6.6,M,11.6,M,13.3,M*29
$PGRMZ,1342,f,3*2F
$PGRMM,WGS 84*06
$GPRTE,1,1,c,*37
$INDPT,5.8,0.0*4A
$INGLL,,,,,,V*16
$INVTG,,T,,M,,N,,K*5E
$INMTW,17.9,C*1B
$GPRMC,123724,A,4907.4054,N,01055.8167,E,0.0,304.8,240711,1.0,E,A*13
$GPRMB,A,,,,,,,,,,,,V,A*1C
$GPGGA,123724,4907.4054,N,01055.8167,E,1,12,0.9,409.1,M,46.5,M,,*44
$GPGSA,A,3,02,04,09,12,14,15,17,25,27,29,32,33,1.6,0.9,1.3*3D
$GPGSV,3,1,12,02,17,121,00,04,22,076,00,09,59,132,00,12,79,303,00*73
$INDPT,5.8,0.0*4A
$INRMC,,V,,,,,,,,,*21
$GPGLL,4907.4054,N,01055.8167,E,123724,A,A*40
$GPBOD,,T,,M,,*47
$GPVTG,304.8,T,303.8,M,0.0,N,0.0,K*49
$PGRME,6.6,M,11.6,M,13.3,M*29
$PGRMZ,1342,f,3*2F
$PGRMM,WGS 84*06
$GPRTE,1,1,c,*37
$INDPT,5.8,0.0*4A
$INGGA,,,,,,0,,,,,,,,*76
$INZDA,,,,,,*58
$INMTW,17.9,C*1B
$GPRMC,123726,A,4907.4054,N,01055.8167,E,0.0,304.8,240711,1.0,E,A*11
$GPRMB,A,,,,,,,,,,,,V,A*1C
$GPGGA,123726,4907.4054,N,01055.8167,E,1,12,0.9,409.1,M,46.5,M,,*46
$GPGSA,A,3,02,04,09,12,14,15,17,25,27,29,32,33,1.6,0.9,1.3*3D
$GPGSV,3,2,12,14,38,298,00,15,04,178,00,17,12,042,00,25,42,266,00*78
$GPGLL,4907.4054,N,01055.8167,E,123726,A,A*42
$INDPT,5.9,0.0*4B
$GPBOD,,T,,M,,*47
$INRMC,,V,,,,,,,,,*21
$GPVTG,304.8,T,303.8,M,0.0,N,0.0,K*49
$PGRME,6.6,M,11.6,M,13.3,M*29
$PGRMZ,1342,f,3*2F
$PGRMM,WGS 84*06
$GPRTE,1,1,c,*37
$INDPT,5.9,0.0*4B
$INGLL,,,,,,V*16
$INVTG,,T,,M,,N,,K*5E
$INMTW,17.9,C*1B
$GPRMC,123728,A,4907.4054,N,01055.8167,E,0.0,304.8,240711,1.0,E,A*1F
$GPRMB,A,,,,,,,,,,,,V,A*1C
$GPGGA,123728,4907.4054,N,01055.8167,E,1,12,0.9,409.1,M,46.5,M,,*48
$GPGSA,A,3,02,04,09,12,14,15,17,25,27,29,32,33,1.6,0.9,1.3*3D
$GPGSV,3,3,12,27,46,132,00,29,11,205,00,32,01,352,00,33,28,212,00*7E
$INDPT,5.9,0.0*4B
$GPGLL,4907.4054,N,01055.8167,E,123728,A,A*4C
$GPBOD,,T,,M,,*47
$INRMC,,V,,,,,,,,,*21
$GPVTG,304.8,T,303.8,M,0.0,N,0.0,K*49
$PGRME,6.6,M,11.6,M,13.3,M*29
$PGRMZ,1342,f,3*2F
$PGRMM,WGS 84*06
$GPRTE,1,1,c,*37
$INDPT,5.9,0.0*4B
$INGGA,,,,,,0,,,,,,,,*76
$INZDA,,,,,,*58
$INMTW,17.9,C*1B
$GPRMC,123730,A,4907.4054,N,01055.8167,E,0.0,304.8,240711,1.0,E,A*16
$GPRMB,A,,,,,,,,,,,,V,A*1C
$GPGGA,123730,4907.4054,N,01055.8167,E,1,12,0.9,409.1,M,46.5,M,,*41
$GPGSA,A,3,02,04,09,12,14,15,17,25,27,29,32,33,1.6,0.9,1.3*3D
$INDPT,5.9,0.0*4B
$INRMC,,V,,,,,,,,,*21
$GPGSV,3,1,12,02,17,121,00,04,22,076,00,09,59,132,00,12,79,303,00*73
$GPGLL,4907.4054,N,01055.8167,E,123730,A,A*45
$GPBOD,,T,,M,,*47
$GPVTG,304.8,T,303.8,M,0.0,N,0.0,K*49
$PGRME,6.6,M,11.6,M,13.4,M*2E
$PGRMZ,1342,f,3*2F
$PGRMM,WGS 84*06
$GPRTE,1,1,c,*37
$INDPT,5.9,0.0*4B
$INGLL,,,,,,V*16
$INVTG,,T,,M,,N,,K*5E
$INMTW,17.9,C*1B
$GPRMC,123732,A,4907.4054,N,01055.8167,E,0.0,304.8,240711,1.0,E,A*14
$GPRMB,A,,,,,,,,,,,,V,A*1C
$GPGGA,123732,4907.4054,N,01055.8167,E,1,12,0.9,409.1,M,46.5,M,,*43
$GPGSA,A,3,02,04,09,12,14,15,17,25,27,29,32,33,1.6,0.9,1.3*3D
$GPGSV,3,2,12,14,38,298,00,15,04,178,00,17,12,042,00,25,42,266,00*78
$INDPT,5.9,0.0*4B
$INRMC,,V,,,,,,,,,*21
$GPGLL,4907.4054,N,01055.8167,E,123732,A,A*47
$GPBOD,,T,,M,,*47
$GPVTG,304.8,T,303.8,M,0.0,N,0.0,K*49
$PGRME,6.6,M,11.6,M,13.4,M*2E
$PGRMZ,1342,f,3*2F
$PGRMM,WGS 84*06
$GPRTE,1,1,c,*37
$INDPT,5.9,0.0*4B
$INGGA,,,,,,0,,,,,,,,*76
$INZDA,,,,,,*58
$INMTW,17.9,C*1B
$GPRMC,123734,A,4907.4054,N,01055.8167,E,0.0,304.8,240711,1.0,E,A*12
$GPRMB,A,,,,,,,,,,,,V,A*1C
$GPGGA,123734,4907.4054,N,01055.8167,E,1,12,0.9,409.1,M,46.5,M,,*45
$GPGSA,A,3,02,04,09,12,14,15,17,25,27,29,32,33,1.6,0.9,1.3*3D
$INDPT,5.9,0.0*4B
$GPGSV,3,3,12,27,46,132,00,29,11,205,00,32,01,352,00,33,28,212,00*7E
$INRMC,,V,,,,,,,,,*21
$GPGLL,4907.4054,N,01055.8167,E,123734,A,A*41
$GPBOD,,T,,M,,*47
$GPVTG,304.8,T,303.8,M,0.0,N,0.0,K*49
$PGRME,6.6,M,11.6,M,13.4,M*2E
$PGRMZ,1342,f,3*2F
$PGRMM,WGS 84*06
$GPRTE,1,1,c,*37
$INDPT,5.8,0.0*4A
$INGLL,,,,,,V*16
$INVTG,,T,,M,,N,,K*5E
$INMTW,17.8,C*1A
$GPRMC,123736,A,4907.4054,N,01055.8167,E,0.0,304.8,240711,1.0,E,A*10
$GPRMB,A,,,,,,,,,,,,V,A*1C
$GPGGA,123736,4907.4054,N,01055.8167,E,1,12,0.9,409.1,M,46.5,M,,*47
$GPGSA,A,3,02,04,09,12,14,15,17,25,27,29,32,33,1.6,0.9,1.3*3D
$INDPT,5.9,0.0*4B
$INRMC,,V,,,,,,,,,*21
$GPGSV,3,1,12,02,17,121,00,04,22,076,00,09,59,132,00,12,79,303,00*73
$GPGLL,4907.4054,N,01055.8167,E,123736,A,A*43
$GPBOD,,T,,M,,*47
$GPVTG,304.8,T,303.8,M,0.0,N,0.0,K*49
$PGRME,6.6,M,11.7,M,13.4,M*2F
$PGRMZ,1342,f,3*2F
$PGRMM,WGS 84*06
$GPRTE,1,1,c,*37
$INDPT,5.8,0.0*4A
$INGGA,,,,,,0,,,,,,,,*76
$INZDA,,,,,,*58
$INMTW,17.8,C*1A
$GPRMC,123738,A,4907.4054,N,01055.8167,E,0.0,304.8,240711,1.0,E,A*1E
$GPRMB,A,,,,,,,,,,,,V,A*1C
$GPGGA,123738,4907.4054,N,01055.8167,E,1,12,0.9,409.1,M,46.5,M,,*49
$GPGSA,A,3,02,04,09,12,14,15,17,25,27,29,32,33,1.6,0.9,1.3*3D
$INDPT,5.8,0.0*4A
$INRMC,,V,,,,,,,,,*21
$GPGSV,3,2,12,14,38,298,00,15,04,178,00,17,12,042,00,25,43,266,00*79
$GPGLL,4907.4054,N,01055.8167,E,123738,A,A*4D
$GPBOD,,T,,M,,*47
$GPVTG,304.8,T,303.8,M,0.0,N,0.0,K*49
$PGRME,6.6,M,11.7,M,13.4,M*2F
$PGRMZ,1342,f,3*2F
$PGRMM,WGS 84*06
$GPRTE,1,1,c,*37
$INDPT,5.8,0.0*4A
$INGLL,,,,,,V*16
$INVTG,,T,,M,,N,,K*5E
$INMTW,17.8,C*1A
$GPRMC,123740,A,4907.4054,N,01055.8167,E,0.0,304.8,240711,1.0,E,A*11
$GPRMB,A,,,,,,,,,,,,V,A*1C
$GPGGA,123740,4907.4054,N,01055.8167,E,1,12,0.9,409.1,M,46.5,M,,*46
$GPGSA,A,3,02,04,09,12,14,15,17,25,27,29,32,33,1.6,0.9,1.3*3D
$GPGSV,3,3,12,27,45,132,00,29,11,205,00,32,01,352,00,33,28,212,00*7D
$INDPT,5.8,0.0*4A
$INRMC,,V,,,,,,,,,*21
$GPGLL,4907.4054,N,01055.8167,E,123740,A,A*42
$GPBOD,,T,,M,,*47
$GPVTG,304.8,T,303.8,M,0.0,N,0.0,K*49
$PGRME,6.6,M,11.7,M,13.4,M*2F
$PGRMZ,1342,f,3*2F
$PGRMM,WGS 84*06
$GPRTE,1,1,c,*37
$INDPT,5.8,0.0*4A
$INGGA,,,,,,0,,,,,,,,*76
$INZDA,,,,,,*58
$INMTW,17.9,C*1B
$GPRMC,123742,A,4907.4054,N,01055.8167,E,0.0,304.8,240711,1.0,E,A*13
$GPRMB,A,,,,,,,,,,,,V,A*1C
$GPGGA,123742,4907.4054,N,01055.8167,E,1,12,0.9,409.1,M,46.5,M,,*44
$GPGSA,A,3,02,04,09,12,14,15,17,25,27,29,32,33,1.6,0.9,1.3*3D
$GPGSV,3,1,12,02,17,121,00,04,22,076,00,09,59,132,00,12,79,303,00*73
$INDPT,5.8,0.0*4A
$INRMC,,V,,,,,,,,,*21
$GPGLL,4907.4054,N,01055.8167,E,123742,A,A*40
$GPBOD,,T,,M,,*47
$GPVTG,304.8,T,303.8,M,0.0,N,0.0,K*49
$PGRME,6.6,M,11.7,M,13.4,M*2F
$PGRMZ,1342,f,3*2F
$PGRMM,WGS 84*06
$GPRTE,1,1,c,*37
$INDPT,5.8,0.0*4A
$INGLL,,,,,,V*16
$INVTG,,T,,M,,N,,K*5E
$INMTW,17.9,C*1B
$GPRMC,123744,A,4907.4054,N,01055.8167,E,0.0,304.8,240711,1.0,E,A*15
$GPRMB,A,,,,,,,,,,,,V,A*1C
$GPGGA,123744,4907.4054,N,01055.8167,E,1,12,0.9,409.1,M,46.5,M,,*42
$GPGSA,A,3,02,04,09,12,14,15,17,25,27,29,32,33,1.6,0.9,1.3*3D
$GPGSV,3,2,12,14,38,298,00,15,04,178,00,17,12,042,00,25,43,266,00*79
$INDPT,5.8,0.0*4A
$INRMC,,V,,,,,,,,,*21
$GPGLL,4907.4054,N,01055.8167,E,123744,A,A*46
$GPBOD,,T,,M,,*47
$GPVTG,304.8,T,303.8,M,0.0,N,0.0,K*49
$PGRME,6.6,M,11.7,M,13.4,M*2F
$PGRMZ,1342,f,3*2F
$PGRMM,WGS 84*06
$GPRTE,1,1,c,*37
$INDPT,5.8,0.0*4A
$INGGA,,,,,,0,,,,,,,,*76
$INZDA,,,,,,*58
$INMTW,17.7,C*15
$GPRMC,123746,A,4907.4054,N,01055.8167,E,0.0,304.8,240711,1.0,E,A*17
$GPRMB,A,,,,,,,,,,,,V,A*1C
$GPGGA,123746,4907.4054,N,01055.8167,E,1,12,0.9,409.1,M,46.5,M,,*40
$GPGSA,A,3,02,04,09,12,14,15,17,25,27,29,32,33,1.6,0.9,1.3*3D
$GPGSV,3,3,12,27,45,132,00,29,11,205,00,32,01,352,00,33,28,212,00*7D
$INDPT,5.8,0.0*4A
$INRMC,,V,,,,,,,,,*21
$GPGLL,4907.4054,N,01055.8167,E,123746,A,A*44
$GPBOD,,T,,M,,*47
$GPVTG,304.8,T,303.8,M,0.0,N,0.0,K*49
$PGRME,6.6,M,11.7,M,13.4,M*2F
$PGRMZ,1342,f,3*2F
$PGRMM,WGS 84*06
$GPRTE,1,1,c,*37
$INDPT,5.8,0.0*4A
$INGLL,,,,,,V*16
$INVTG,,T,,M,,N,,K*5E
$INMTW,17.9,C*1B
